"shard","parent_id","s3_prefix","neighborhood","city","region","country","country_code","destination","lat","lng","anchor_hint","why_fit"
"00","neighborhoods/ae-abu-dhabi/corniche","images/Neighborhood_POIs/ae-abu-dhabi/corniche/","Corniche","Abu Dhabi","","United Arab Emirates","AE","Corniche, Abu Dhabi, United Arab Emirates","24.4719602","54.3374924","Abu Dhabi Corniche Beach","Central waterfront upscale area"
"01","neighborhoods/ae-ajman-city/ajman-corniche","images/Neighborhood_POIs/ae-ajman-city/ajman-corniche/","Ajman Corniche","Ajman City","","United Arab Emirates","AE","Ajman Corniche, Ajman City, United Arab Emirates","25.4133829","55.4335872","Ajman Corniche Park","waterfront dining tourist area"
"02","neighborhoods/ae-ajman-city/al-rashidiya","images/Neighborhood_POIs/ae-ajman-city/al-rashidiya/","Al Rashidiya","Ajman City","","United Arab Emirates","AE","Al Rashidiya, Ajman City, United Arab Emirates","25.3978333","55.4326183","Al Rashidiya Shopping Center","central commercial waterfront district"
"03","neighborhoods/ae-al-ain-city/al-jimi","images/Neighborhood_POIs/ae-al-ain-city/al-jimi/","Al Jimi","Al Ain City","","United Arab Emirates","AE","Al Jimi, Al Ain City, United Arab Emirates","24.2433171","55.7265479","Al Jimi Mall","established retail and mall area"
"04","neighborhoods/ae-al-ain-city/central-district-al-ain-town","images/Neighborhood_POIs/ae-al-ain-city/central-district-al-ain-town/","Central District (Al Ain Town)","Al Ain City","","United Arab Emirates","AE","Central District (Al Ain Town), Al Ain City, United Arab Emirates","24.1629226","55.8089363","Al Ain Central Market","central commercial core"
"05","neighborhoods/ae-dubai-investments-park/city-centre","images/Neighborhood_POIs/ae-dubai-investments-park/city-centre/","City Centre","Dubai Investments Park","","United Arab Emirates","AE","City Centre, Dubai Investments Park, United Arab Emirates","25.00827","55.15682","Dubai Investments Park city center","Central urban district (auto-added, pop >=100k)"
"06","neighborhoods/ae-fujairah/city-centre","images/Neighborhood_POIs/ae-fujairah/city-centre/","City Centre","Fujairah","","United Arab Emirates","AE","City Centre, Fujairah, United Arab Emirates","25.11641","56.34141","Fujairah city center","Central urban district (auto-added, pop >=100k)"
"07","neighborhoods/ae-jebel-ali/city-centre","images/Neighborhood_POIs/ae-jebel-ali/city-centre/","City Centre","Jebel Ali","","United Arab Emirates","AE","City Centre, Jebel Ali, United Arab Emirates","25.00255","55.10811","Jebel Ali city center","Central urban district (auto-added, pop >=100k)"
"08","neighborhoods/ae-ras-al-khaimah-city/al-hamra","images/Neighborhood_POIs/ae-ras-al-khaimah-city/al-hamra/","Al Hamra","Ras Al Khaimah City","","United Arab Emirates","AE","Al Hamra, Ras Al Khaimah City, United Arab Emirates","25.6959352","55.7785092","Al Hamra Marina & Yacht Club","upscale waterfront resort district"
"09","neighborhoods/ae-ras-al-khaimah-city/al-nakheel","images/Neighborhood_POIs/ae-ras-al-khaimah-city/al-nakheel/","Al Nakheel","Ras Al Khaimah City","","United Arab Emirates","AE","Al Nakheel, Ras Al Khaimah City, United Arab Emirates","25.7945518","55.9450795","Ras Al Khaimah National Museum","central commercial business district"
"10","neighborhoods/af-baghlan/city-centre","images/Neighborhood_POIs/af-baghlan/city-centre/","City Centre","Baghlān","","Afghanistan","AF","City Centre, Baghlān, Afghanistan","36.13068","68.70829","Baghlān city center","Central urban district (auto-added, pop >=100k)"
"11","neighborhoods/af-balkh/city-centre","images/Neighborhood_POIs/af-balkh/city-centre/","City Centre","Balkh","","Afghanistan","AF","City Centre, Balkh, Afghanistan","36.75635","66.8972","Balkh city center","Central urban district (auto-added, pop >=100k)"
"12","neighborhoods/af-gardez/city-centre","images/Neighborhood_POIs/af-gardez/city-centre/","City Centre","Gardez","","Afghanistan","AF","City Centre, Gardez, Afghanistan","33.59744","69.22592","Gardez city center","Central urban district (auto-added, pop >=100k)"
"13","neighborhoods/af-ghazni/city-centre","images/Neighborhood_POIs/af-ghazni/city-centre/","City Centre","Ghazni","","Afghanistan","AF","City Centre, Ghazni, Afghanistan","33.55391","68.42096","Ghazni city center","Central urban district (auto-added, pop >=100k)"
"14","neighborhoods/af-herat/city-center","images/Neighborhood_POIs/af-herat/city-center/","city center","Herāt","","Afghanistan","AF","city center, Herāt, Afghanistan","34.3459994","62.1884571","Herat Citadel","central commercial area"
"15","neighborhoods/af-jalalabad/city-centre","images/Neighborhood_POIs/af-jalalabad/city-centre/","City Centre","Jalālābād","","Afghanistan","AF","City Centre, Jalālābād, Afghanistan","34.5313207","69.1691931","Jalalabad Clock Tower","Central urban district"
"16","neighborhoods/af-kabul/shahr-e-naw","images/Neighborhood_POIs/af-kabul/shahr-e-naw/","Shahr-e Naw","Kabul","","Afghanistan","AF","Shahr-e Naw, Kabul, Afghanistan","34.5331056","69.1682093","Shahr-e Naw Park","Central commercial shopping area"
"17","neighborhoods/af-kabul/wazir-akbar-khan","images/Neighborhood_POIs/af-kabul/wazir-akbar-khan/","Wazir Akbar Khan","Kabul","","Afghanistan","AF","Wazir Akbar Khan, Kabul, Afghanistan","34.5357075","69.1905501","Embassy of the United States, Wazir Akbar Khan","Affluent embassy diplomatic district"
"18","neighborhoods/af-kandahar/city-centre","images/Neighborhood_POIs/af-kandahar/city-centre/","City Centre","Kandahār","","Afghanistan","AF","City Centre, Kandahār, Afghanistan","31.61332","65.71013","Kandahār city center","Central urban district (auto-added, pop >=100k)"
"19","neighborhoods/af-kunduz/city-centre","images/Neighborhood_POIs/af-kunduz/city-centre/","City Centre","Kunduz","","Afghanistan","AF","City Centre, Kunduz, Afghanistan","36.72895","68.857","Kunduz city center","Central urban district (auto-added, pop >=100k)"
"00","neighborhoods/af-mazar-e-sharif/city-centre","images/Neighborhood_POIs/af-mazar-e-sharif/city-centre/","City Centre","Mazār-e Sharīf","","Afghanistan","AF","City Centre, Mazār-e Sharīf, Afghanistan","36.70904","67.11087","Mazār-e Sharīf city center","Central urban district (auto-added, pop >=100k)"
"01","neighborhoods/al-durres/durres-old-town","images/Neighborhood_POIs/al-durres/durres-old-town/","Durrës Old Town","Durrës","","Albania","AL","Durrës Old Town, Durrës, Albania","41.32355","19.45469","Durrës city center","Roman amphitheatre and seafront promenade"
"02","neighborhoods/al-elbasan/city-centre","images/Neighborhood_POIs/al-elbasan/city-centre/","City Centre","Elbasan","","Albania","AL","City Centre, Elbasan, Albania","41.11138","20.08224","Elbasan city center","Central urban district (auto-added, pop >=100k)"
"03","neighborhoods/al-tirana/city-center-skanderbeg","images/Neighborhood_POIs/al-tirana/city-center-skanderbeg/","City Center (Skanderbeg)","Tirana","","Albania","AL","City Center (Skanderbeg), Tirana, Albania","41.3307478","19.819233","Skanderbeg Square","Central walkable cultural core"
"04","neighborhoods/al-vlore/city-centre","images/Neighborhood_POIs/al-vlore/city-centre/","City Centre","Vlorë","","Albania","AL","City Centre, Vlorë, Albania","40.4696","19.48379","Vlorë city center","Central urban district (auto-added, pop >=100k)"
"05","neighborhoods/am-gyumri/city-centre","images/Neighborhood_POIs/am-gyumri/city-centre/","City Centre","Gyumri","","Armenia","AM","City Centre, Gyumri, Armenia","40.79305","43.84635","Gyumri city center","Central urban district (auto-added, pop >=100k)"
"06","neighborhoods/am-yerevan/cascade-district","images/Neighborhood_POIs/am-yerevan/cascade-district/","Cascade District","Yerevan","","Armenia","AM","Cascade District, Yerevan, Armenia","40.1903966","44.5154106","Cafesjian Center for the Arts","Arts cafe cultural hub"
"07","neighborhoods/am-yerevan/northern-avenue","images/Neighborhood_POIs/am-yerevan/northern-avenue/","Northern Avenue","Yerevan","","Armenia","AM","Northern Avenue, Yerevan, Armenia","40.1813324","44.5145872","Northern Avenue Pedestrian Street","Pedestrian upscale dining strip"
"08","neighborhoods/ao-baia-farta/city-centre","images/Neighborhood_POIs/ao-baia-farta/city-centre/","City Centre","Baía Farta","","Angola","AO","City Centre, Baía Farta, Angola","-12.60417","13.19667","Baía Farta city center","Central urban district (auto-added, pop >=100k)"
"09","neighborhoods/ao-balombo/city-centre","images/Neighborhood_POIs/ao-balombo/city-centre/","City Centre","Balombo","","Angola","AO","City Centre, Balombo, Angola","-12.35426","14.77232","Balombo city center","Central urban district (auto-added, pop >=100k)"
"10","neighborhoods/ao-benguela/city-center","images/Neighborhood_POIs/ao-benguela/city-center/","City Center","Benguela","","Angola","AO","City Center, Benguela, Angola","-12.5857756","13.4025807","Benguela Cathedral","central colonial coastal core"
"11","neighborhoods/ao-bocoio/city-centre","images/Neighborhood_POIs/ao-bocoio/city-centre/","City Centre","Bocoio","","Angola","AO","City Centre, Bocoio, Angola","-12.47017","14.13688","Bocoio city center","Central urban district (auto-added, pop >=100k)"
"12","neighborhoods/ao-caala/city-centre","images/Neighborhood_POIs/ao-caala/city-centre/","City Centre","Caála","","Angola","AO","City Centre, Caála, Angola","-12.8525","15.56056","Caála city center","Central urban district (auto-added, pop >=100k)"
"13","neighborhoods/ao-cabinda/city-center","images/Neighborhood_POIs/ao-cabinda/city-center/","City Center","Cabinda","","Angola","AO","City Center, Cabinda, Angola","-5.5629975","12.1796828","Cabinda Central Market","central coastal core"
"14","neighborhoods/ao-calumbo/city-centre","images/Neighborhood_POIs/ao-calumbo/city-centre/","City Centre","Calumbo","","Angola","AO","City Centre, Calumbo, Angola","-9.14692","13.41936","Calumbo city center","Central urban district (auto-added, pop >=100k)"
"15","neighborhoods/ao-catchiungo/city-centre","images/Neighborhood_POIs/ao-catchiungo/city-centre/","City Centre","Catchiungo","","Angola","AO","City Centre, Catchiungo, Angola","-12.56598","16.22589","Catchiungo city center","Central urban district (auto-added, pop >=100k)"
"16","neighborhoods/ao-chitato/city-centre","images/Neighborhood_POIs/ao-chitato/city-centre/","City Centre","Chitato","","Angola","AO","City Centre, Chitato, Angola","-7.3","20.73333","Chitato city center","Central urban district (auto-added, pop >=100k)"
"17","neighborhoods/ao-cuito/city-center","images/Neighborhood_POIs/ao-cuito/city-center/","City Center","Cuíto","","Angola","AO","City Center, Cuíto, Angola","-12.395786","16.9378042","Cuíto Central Market","central commercial district"
"18","neighborhoods/ao-dundo/city-centre","images/Neighborhood_POIs/ao-dundo/city-centre/","City Centre","Dundo","","Angola","AO","City Centre, Dundo, Angola","-7.36643","20.81557","Dundo city center","Central urban district (auto-added, pop >=100k)"
"19","neighborhoods/ao-gabela/city-centre","images/Neighborhood_POIs/ao-gabela/city-centre/","City Centre","Gabela","","Angola","AO","City Centre, Gabela, Angola","-10.85147","14.37993","Gabela city center","Central urban district (auto-added, pop >=100k)"
"00","neighborhoods/ao-huambo/city-center","images/Neighborhood_POIs/ao-huambo/city-center/","city center","Huambo","","Angola","AO","city center, Huambo, Angola","-12.7787167","15.7390608","Huambo Central Mosque","central commercial area"
"01","neighborhoods/ao-lobito/city-center","images/Neighborhood_POIs/ao-lobito/city-center/","City Center","Lobito","","Angola","AO","City Center, Lobito, Angola","-12.3666273","13.5513818","Lobito Central Market","Central commercial area"
"02","neighborhoods/ao-lobito/restinga","images/Neighborhood_POIs/ao-lobito/restinga/","Restinga","Lobito","","Angola","AO","Restinga, Lobito, Angola","-12.3161156","13.5839778","Restinga Beach","Coastal peninsula district"
"03","neighborhoods/ao-luanda/baixa","images/Neighborhood_POIs/ao-luanda/baixa/","Baixa","Luanda","","Angola","AO","Baixa, Luanda, Angola","-8.8083294","13.2234282","Fortaleza de São Miguel","central business historic core"
"04","neighborhoods/ao-luanda/ilha-do-cabo","images/Neighborhood_POIs/ao-luanda/ilha-do-cabo/","Ilha do Cabo","Luanda","","Angola","AO","Ilha do Cabo, Luanda, Angola","-8.9133625","13.3444219","Ilha do Cabo Beach","upscale waterfront dining strip"
"05","neighborhoods/ao-luanda/talatona","images/Neighborhood_POIs/ao-luanda/talatona/","Talatona","Luanda","","Angola","AO","Talatona, Luanda, Angola","-8.9114527","13.2024688","Talatona Shopping Center","modern upscale business district"
"06","neighborhoods/ao-lubango/city-center","images/Neighborhood_POIs/ao-lubango/city-center/","city center","Lubango","","Angola","AO","city center, Lubango, Angola","-14.9199161","13.4804419","Lubango Central Market","central business district"
"07","neighborhoods/ao-lucapa/city-centre","images/Neighborhood_POIs/ao-lucapa/city-centre/","City Centre","Lucapa","","Angola","AO","City Centre, Lucapa, Angola","-8.41915","20.74466","Lucapa city center","Central urban district (auto-added, pop >=100k)"
"08","neighborhoods/ao-luena/city-centre","images/Neighborhood_POIs/ao-luena/city-centre/","City Centre","Luena","","Angola","AO","City Centre, Luena, Angola","-11.7882041","19.9092702","Luena Central Market","Central urban district"
"09","neighborhoods/ao-malanje/city-center","images/Neighborhood_POIs/ao-malanje/city-center/","City Center","Malanje","","Angola","AO","City Center, Malanje, Angola","-9.5510016","16.3389538","Malanje Central Mosque","Central commercial district"
"10","neighborhoods/ao-mbanza-kongo/city-centre","images/Neighborhood_POIs/ao-mbanza-kongo/city-centre/","City Centre","Mbanza Kongo","","Angola","AO","City Centre, Mbanza Kongo, Angola","-6.26667","14.23833","Mbanza Kongo city center","Central urban district (auto-added, pop >=100k)"
"11","neighborhoods/ao-menongue/centro","images/Neighborhood_POIs/ao-menongue/centro/","Centro","Menongue","","Angola","AO","Centro, Menongue, Angola","-14.6593731","17.6616173","Menongue Central Square","town center"
"12","neighborhoods/ao-mossamedes/centro","images/Neighborhood_POIs/ao-mossamedes/centro/","Centro","Mossamedes","","Angola","AO","Centro, Mossamedes, Angola","-15.2003797","12.1435215","Mossamedes Cathedral","colonial coastal center"
"13","neighborhoods/ao-n-dalatando/city-centre","images/Neighborhood_POIs/ao-n-dalatando/city-centre/","City Centre","N'dalatando","","Angola","AO","City Centre, N'dalatando, Angola","-9.29782","14.91162","N'dalatando city center","Central urban district (auto-added, pop >=100k)"
"14","neighborhoods/ao-ondjiva/city-centre","images/Neighborhood_POIs/ao-ondjiva/city-centre/","City Centre","Ondjiva","","Angola","AO","City Centre, Ondjiva, Angola","-17.06667","15.73333","Ondjiva city center","Central urban district (auto-added, pop >=100k)"
"15","neighborhoods/ao-panguila/city-centre","images/Neighborhood_POIs/ao-panguila/city-centre/","City Centre","Panguíla","","Angola","AO","City Centre, Panguíla, Angola","-8.69335","13.44914","Panguíla city center","Central urban district (auto-added, pop >=100k)"
"16","neighborhoods/ao-ramiros/city-centre","images/Neighborhood_POIs/ao-ramiros/city-centre/","City Centre","Ramiros","","Angola","AO","City Centre, Ramiros, Angola","-9.06259","13.0456","Ramiros city center","Central urban district (auto-added, pop >=100k)"
"17","neighborhoods/ao-saurimo/city-centre","images/Neighborhood_POIs/ao-saurimo/city-centre/","City Centre","Saurimo","","Angola","AO","City Centre, Saurimo, Angola","-9.66078","20.39155","Saurimo city center","Central urban district (auto-added, pop >=100k)"
"18","neighborhoods/ao-soyo/city-centre","images/Neighborhood_POIs/ao-soyo/city-centre/","City Centre","Soyo","","Angola","AO","City Centre, Soyo, Angola","-6.1349","12.36894","Soyo city center","Central urban district (auto-added, pop >=100k)"
"19","neighborhoods/ao-sumbe/city-centre","images/Neighborhood_POIs/ao-sumbe/city-centre/","City Centre","Sumbe","","Angola","AO","City Centre, Sumbe, Angola","-11.20605","13.84371","Sumbe city center","Central urban district (auto-added, pop >=100k)"
"00","neighborhoods/ao-uige/city-center","images/Neighborhood_POIs/ao-uige/city-center/","City Center","Uíge","","Angola","AO","City Center, Uíge, Angola","-8.8396955","13.2367779","Uíge Central Mosque","central commercial district"
"01","neighborhoods/ao-zango/city-centre","images/Neighborhood_POIs/ao-zango/city-centre/","City Centre","Zango","","Angola","AO","City Centre, Zango, Angola","-9.01212","13.38437","Zango city center","Central urban district (auto-added, pop >=100k)"
"02","neighborhoods/ar-bahia-blanca/centro","images/Neighborhood_POIs/ar-bahia-blanca/centro/","Centro","Bahía Blanca","","Argentina","AR","Centro, Bahía Blanca, Argentina","-38.7176219","-62.2654851","Plaza Rivadavia","Historic center, dining, walkable"
"03","neighborhoods/ar-bahia-blanca/plaza-rivadavia-area","images/Neighborhood_POIs/ar-bahia-blanca/plaza-rivadavia-area/","Plaza Rivadavia area","Bahía Blanca","","Argentina","AR","Plaza Rivadavia area, Bahía Blanca, Argentina","-38.7176219","-62.2654851","Plaza Rivadavia","Central plaza, cafes, commercial"
"04","neighborhoods/ar-catamarca/city-centre","images/Neighborhood_POIs/ar-catamarca/city-centre/","City Centre","Catamarca","","Argentina","AR","City Centre, Catamarca, Argentina","-28.46957","-65.78524","Catamarca city center","Central urban district (auto-added, pop >=100k)"
"05","neighborhoods/ar-comodoro-rivadavia/city-centre","images/Neighborhood_POIs/ar-comodoro-rivadavia/city-centre/","City Centre","Comodoro Rivadavia","","Argentina","AR","City Centre, Comodoro Rivadavia, Argentina","-45.86256","-67.494","Comodoro Rivadavia city center","Central urban district (auto-added, pop >=100k)"
"06","neighborhoods/ar-concordia/city-centre","images/Neighborhood_POIs/ar-concordia/city-centre/","City Centre","Concordia","","Argentina","AR","City Centre, Concordia, Argentina","-31.39195","-58.01706","Concordia city center","Central urban district (auto-added, pop >=100k)"
"07","neighborhoods/ar-cordoba/centro","images/Neighborhood_POIs/ar-cordoba/centro/","Centro","Córdoba","","Argentina","AR","Centro, Córdoba, Argentina","-31.4167528","-64.1835619","Plaza San Martín","Historic walkable urban core"
"08","neighborhoods/ar-cordoba/cerro-de-las-rosas","images/Neighborhood_POIs/ar-cordoba/cerro-de-las-rosas/","Cerro de las Rosas","Córdoba","","Argentina","AR","Cerro de las Rosas, Córdoba, Argentina","-31.4198818","-64.1882711","Patio Olmos","Upscale dining and nightlife"
"09","neighborhoods/ar-cordoba/guemes","images/Neighborhood_POIs/ar-cordoba/guemes/","Güemes","Córdoba","","Argentina","AR","Güemes, Córdoba, Argentina","-31.4164618","-64.1846706","Pasaje Santa Catalina","Bohemian arts and dining"
"10","neighborhoods/ar-corrientes/centro","images/Neighborhood_POIs/ar-corrientes/centro/","Centro","Corrientes","","Argentina","AR","Centro, Corrientes, Argentina","-27.4647431","-58.8362863","Teatro Oficial Juan de Vera","central commercial riverside core"
"11","neighborhoods/ar-corrientes/costanera","images/Neighborhood_POIs/ar-corrientes/costanera/","Costanera","Corrientes","","Argentina","AR","Costanera, Corrientes, Argentina","-27.4775131","-58.8551667","Costanera Sur","riverfront promenade dining area"
"12","neighborhoods/ar-ezeiza/city-centre","images/Neighborhood_POIs/ar-ezeiza/city-centre/","City Centre","Ezeiza","","Argentina","AR","City Centre, Ezeiza, Argentina","-34.8544","-58.52474","Ezeiza city center","Central urban district (auto-added, pop >=100k)"
"13","neighborhoods/ar-formosa/city-centre","images/Neighborhood_POIs/ar-formosa/city-centre/","City Centre","Formosa","","Argentina","AR","City Centre, Formosa, Argentina","-26.18489","-58.17313","Formosa city center","Central urban district (auto-added, pop >=100k)"
"14","neighborhoods/ar-ituzaingo/city-centre","images/Neighborhood_POIs/ar-ituzaingo/city-centre/","City Centre","Ituzaingó","","Argentina","AR","City Centre, Ituzaingó, Argentina","-27.58504","-56.68707","Ituzaingó city center","Central urban district (auto-added, pop >=100k)"
"15","neighborhoods/ar-la-plata/city-centre","images/Neighborhood_POIs/ar-la-plata/city-centre/","City Centre","La Plata","","Argentina","AR","City Centre, La Plata, Argentina","-34.92126","-57.95442","La Plata city center","Central urban district (auto-added, pop >=100k)"
"16","neighborhoods/ar-la-rioja/city-centre","images/Neighborhood_POIs/ar-la-rioja/city-centre/","City Centre","La Rioja","","Argentina","AR","City Centre, La Rioja, Argentina","-29.41328","-66.85637","La Rioja city center","Central urban district (auto-added, pop >=100k)"
"17","neighborhoods/ar-mar-del-plata/centro","images/Neighborhood_POIs/ar-mar-del-plata/centro/","Centro","Mar del Plata","","Argentina","AR","Centro, Mar del Plata, Argentina","-38.0056254","-57.5434824","Plaza Colón","central downtown district"
"18","neighborhoods/ar-mar-del-plata/playa-grande","images/Neighborhood_POIs/ar-mar-del-plata/playa-grande/","Playa Grande","Mar del Plata","","Argentina","AR","Playa Grande, Mar del Plata, Argentina","-38.0277922","-57.5323172","Playa Grande Beach","upscale beach neighborhood"
"19","neighborhoods/ar-mendoza/ciudad-de-mendoza-centro","images/Neighborhood_POIs/ar-mendoza/ciudad-de-mendoza-centro/","Ciudad de Mendoza Centro","Mendoza","","Argentina","AR","Ciudad de Mendoza Centro, Mendoza, Argentina","-32.9253532","-68.8436635","Correo Argentino","Plaza Independencia wine-city core"
"00","neighborhoods/ar-merlo/centro","images/Neighborhood_POIs/ar-merlo/centro/","Centro","Merlo","","Argentina","AR","Centro, Merlo, Argentina","-34.6828919","-58.728691","Plaza San Martín","Central commercial district"
"01","neighborhoods/ar-neuquen/city-centre","images/Neighborhood_POIs/ar-neuquen/city-centre/","City Centre","Neuquén","","Argentina","AR","City Centre, Neuquén, Argentina","-38.95078","-68.0592","Neuquén city center","Central urban district (auto-added, pop >=100k)"
"02","neighborhoods/ar-parana/city-centre","images/Neighborhood_POIs/ar-parana/city-centre/","City Centre","Paraná","","Argentina","AR","City Centre, Paraná, Argentina","-31.73271","-60.52897","Paraná city center","Central urban district (auto-added, pop >=100k)"
"03","neighborhoods/ar-posadas/centro","images/Neighborhood_POIs/ar-posadas/centro/","Centro","Posadas","","Argentina","AR","Centro, Posadas, Argentina","-27.366443","-55.894039","Plaza 9 de Julio","Riverside central commercial core"
"04","neighborhoods/ar-posadas/costanera","images/Neighborhood_POIs/ar-posadas/costanera/","Costanera","Posadas","","Argentina","AR","Costanera, Posadas, Argentina","-27.3789994","-55.8858506","Costanera de Posadas","Waterfront promenade dining area"
"05","neighborhoods/ar-quilmes/centro","images/Neighborhood_POIs/ar-quilmes/centro/","Centro","Quilmes","","Argentina","AR","Centro, Quilmes, Argentina","-34.7199951","-58.2543591","Plaza San Martín","central commercial walkable district"
"06","neighborhoods/ar-rawson/city-centre","images/Neighborhood_POIs/ar-rawson/city-centre/","City Centre","Rawson","","Argentina","AR","City Centre, Rawson, Argentina","-31.58189","-68.54211","Rawson city center","Central urban district (auto-added, pop >=100k)"
"07","neighborhoods/ar-resistencia/centro","images/Neighborhood_POIs/ar-resistencia/centro/","Centro","Resistencia","","Argentina","AR","Centro, Resistencia, Argentina","-27.4511801","-58.9865412","Plaza 25 de Mayo","central walkable plaza district"
"08","neighborhoods/ar-resistencia/villa-don-andres","images/Neighborhood_POIs/ar-resistencia/villa-don-andres/","Villa Don Andres","Resistencia","","Argentina","AR","Villa Don Andres, Resistencia, Argentina","-27.4333572","-58.9675438","Parque de la Democracia","upscale residential area"
"09","neighborhoods/ar-rio-cuarto/city-centre","images/Neighborhood_POIs/ar-rio-cuarto/city-centre/","City Centre","Río Cuarto","","Argentina","AR","City Centre, Río Cuarto, Argentina","-33.13044","-64.35272","Río Cuarto city center","Central urban district (auto-added, pop >=100k)"
"10","neighborhoods/ar-salta/barrio-norte","images/Neighborhood_POIs/ar-salta/barrio-norte/","Barrio Norte","Salta","","Argentina","AR","Barrio Norte, Salta, Argentina","-24.7935293","-65.4019326","Parque San Martín","Affluent residential dining area"
"11","neighborhoods/ar-salta/centro-casco-historico","images/Neighborhood_POIs/ar-salta/centro-casco-historico/","Centro / Casco Histórico","Salta","","Argentina","AR","Centro / Casco Histórico, Salta, Argentina","-24.7884361","-65.4104676","Cathedral of Salta","Historic walkable colonial center"
"12","neighborhoods/ar-san-juan/city-centre","images/Neighborhood_POIs/ar-san-juan/city-centre/","City Centre","San Juan","","Argentina","AR","City Centre, San Juan, Argentina","-31.53726","-68.52568","San Juan city center","Central urban district (auto-added, pop >=100k)"
"13","neighborhoods/ar-san-luis/city-centre","images/Neighborhood_POIs/ar-san-luis/city-centre/","City Centre","San Luis","","Argentina","AR","City Centre, San Luis, Argentina","-33.2914","-66.32467","San Luis city center","Central urban district (auto-added, pop >=100k)"
"14","neighborhoods/ar-san-miguel-de-tucuman/barrio-norte","images/Neighborhood_POIs/ar-san-miguel-de-tucuman/barrio-norte/","Barrio Norte","San Miguel de Tucumán","","Argentina","AR","Barrio Norte, San Miguel de Tucumán, Argentina","-26.8292678","-65.1916518","Parque 9 de Julio","affluent leafy residential area"
"15","neighborhoods/ar-san-miguel-de-tucuman/centro","images/Neighborhood_POIs/ar-san-miguel-de-tucuman/centro/","Centro","San Miguel de Tucumán","","Argentina","AR","Centro, San Miguel de Tucumán, Argentina","-26.8304431","-65.2038084","Plaza Independencia","central walkable historic core"
"16","neighborhoods/ar-san-miguel-de-tucuman/yerba-buena","images/Neighborhood_POIs/ar-san-miguel-de-tucuman/yerba-buena/","Yerba Buena","San Miguel de Tucumán","","Argentina","AR","Yerba Buena, San Miguel de Tucumán, Argentina","-26.809245","-65.2878224","Yerba Buena Plaza","upscale suburban dining district"
"17","neighborhoods/ar-san-nicolas-de-los-arroyos/city-centre","images/Neighborhood_POIs/ar-san-nicolas-de-los-arroyos/city-centre/","City Centre","San Nicolás de los Arroyos","","Argentina","AR","City Centre, San Nicolás de los Arroyos, Argentina","-33.33425","-60.2108","San Nicolás de los Arroyos city center","Central urban district (auto-added, pop >=100k)"
"18","neighborhoods/ar-san-rafael/city-centre","images/Neighborhood_POIs/ar-san-rafael/city-centre/","City Centre","San Rafael","","Argentina","AR","City Centre, San Rafael, Argentina","-34.61531","-68.33238","San Rafael city center","Central urban district (auto-added, pop >=100k)"
"19","neighborhoods/ar-santa-fe/centro","images/Neighborhood_POIs/ar-santa-fe/centro/","Centro","Santa Fe","","Argentina","AR","Centro, Santa Fe, Argentina","-31.6570967","-60.7105556","Plaza 25 de Mayo","Central downtown commercial area"
"00","neighborhoods/ar-santa-fe/recoleta","images/Neighborhood_POIs/ar-santa-fe/recoleta/","Recoleta","Santa Fe","","Argentina","AR","Recoleta, Santa Fe, Argentina","-31.6351072","-60.7205985","Parque Juan de Garay","Upscale central residential district"
"01","neighborhoods/ar-santa-rosa/city-centre","images/Neighborhood_POIs/ar-santa-rosa/city-centre/","City Centre","Santa Rosa","","Argentina","AR","City Centre, Santa Rosa, Argentina","-36.61617","-64.28991","Santa Rosa city center","Central urban district (auto-added, pop >=100k)"
"02","neighborhoods/ar-santiago-del-estero/centro","images/Neighborhood_POIs/ar-santiago-del-estero/centro/","Centro","Santiago del Estero","","Argentina","AR","Centro, Santiago del Estero, Argentina","-27.7875278","-64.2595019","Plaza Libertad","central plaza commercial district"
"03","neighborhoods/ar-tandil/city-centre","images/Neighborhood_POIs/ar-tandil/city-centre/","City Centre","Tandil","","Argentina","AR","City Centre, Tandil, Argentina","-37.3287","-59.1369","Tandil city center","Central urban district (auto-added, pop >=100k)"
"04","neighborhoods/at-graz/innere-stadt","images/Neighborhood_POIs/at-graz/innere-stadt/","Innere Stadt","Graz","","Austria","AT","Innere Stadt, Graz, Austria","47.0735697","15.4377041","Graz Clock Tower","UNESCO historic walkable core"
"05","neighborhoods/at-graz/st-leonhard","images/Neighborhood_POIs/at-graz/st-leonhard/","St. Leonhard","Graz","","Austria","AT","St. Leonhard, Graz, Austria","47.0785692","15.4650289","St. Leonhard Church","Walkable central residential district"
"06","neighborhoods/at-innsbruck/altstadt","images/Neighborhood_POIs/at-innsbruck/altstadt/","Altstadt","Innsbruck","","Austria","AT","Altstadt, Innsbruck, Austria","47.2681973","11.3927729","Altstadt","Golden-roof alpine old town"
"07","neighborhoods/at-klagenfurt/innere-stadt","images/Neighborhood_POIs/at-klagenfurt/innere-stadt/","Innere Stadt","Klagenfurt","","Austria","AT","Innere Stadt, Klagenfurt, Austria","46.624976","14.308406","Innere Stadt","Renaissance courtyards centre"
"08","neighborhoods/at-salzburg/andraviertel","images/Neighborhood_POIs/at-salzburg/andraviertel/","Andräviertel","Salzburg","","Austria","AT","Andräviertel, Salzburg, Austria","47.79941","13.04399","Salzburg city center","Right-bank quarter of galleries and cafes"
"09","neighborhoods/au-adelaide/adelaide-cbd","images/Neighborhood_POIs/au-adelaide/adelaide-cbd/","Adelaide CBD","Adelaide","","Australia","AU","Adelaide CBD, Adelaide, Australia","-34.9294838","138.5974186","Adelaide Central Market","Central business dining core"
"10","neighborhoods/au-ballarat/city-centre","images/Neighborhood_POIs/au-ballarat/city-centre/","City Centre","Ballarat","","Australia","AU","City Centre, Ballarat, Australia","-37.56622","143.84957","Ballarat city center","Central urban district (auto-added, pop >=100k)"
"11","neighborhoods/au-bendigo/city-centre","images/Neighborhood_POIs/au-bendigo/city-centre/","City Centre","Bendigo","","Australia","AU","City Centre, Bendigo, Australia","-36.75818","144.28024","Bendigo city center","Central urban district (auto-added, pop >=100k)"
"12","neighborhoods/au-brisbane/brisbane-cbd","images/Neighborhood_POIs/au-brisbane/brisbane-cbd/","Brisbane CBD","Brisbane","","Australia","AU","Brisbane CBD, Brisbane, Australia","-27.4685063","153.0239259","King George Square","dense walkable business center"
"13","neighborhoods/au-canberra/civic","images/Neighborhood_POIs/au-canberra/civic/","Civic","Canberra","","Australia","AU","Civic, Canberra, Australia","-35.2802271","149.1332559","Canberra Centre","Central business district"
"14","neighborhoods/au-canberra/new-acton","images/Neighborhood_POIs/au-canberra/new-acton/","New Acton","Canberra","","Australia","AU","New Acton, Canberra, Australia","-35.2841887","149.1245382","NewActon Nishi","Creative arts and dining hub"
"15","neighborhoods/au-darwin/city-centre","images/Neighborhood_POIs/au-darwin/city-centre/","City Centre","Darwin","","Australia","AU","City Centre, Darwin, Australia","-12.46113","130.84185","Darwin city center","Central urban district (auto-added, pop >=100k)"
"16","neighborhoods/au-geelong/central-geelong","images/Neighborhood_POIs/au-geelong/central-geelong/","Central Geelong","Geelong","","Australia","AU","Central Geelong, Geelong, Australia","-38.1436956","144.3629778","Geelong Waterfront Carousel","Waterfront dining shopping district"
"17","neighborhoods/au-geelong/geelong-waterfront","images/Neighborhood_POIs/au-geelong/geelong-waterfront/","Geelong Waterfront","Geelong","","Australia","AU","Geelong Waterfront, Geelong, Australia","-38.1468247","144.3689464","Eastern Beach Reserve","Revitalized promenade dining tourism"
"18","neighborhoods/au-hobart/hobart-cbd","images/Neighborhood_POIs/au-hobart/hobart-cbd/","Hobart CBD","Hobart","","Australia","AU","Hobart CBD, Hobart, Australia","-42.8864785","147.3312465","Salamanca Place","central business waterfront"
"19","neighborhoods/au-hobart/salamanca","images/Neighborhood_POIs/au-hobart/salamanca/","Salamanca","Hobart","","Australia","AU","Salamanca, Hobart, Australia","-42.8869223","147.3321107","Salamanca Market","arts dining market precinct"
"00","neighborhoods/au-logan-city/beenleigh","images/Neighborhood_POIs/au-logan-city/beenleigh/","Beenleigh","Logan City","","Australia","AU","Beenleigh, Logan City, Australia","-27.7178487","153.204579","Beenleigh Railway Station","central transit and retail area"
"01","neighborhoods/au-logan-city/springwood","images/Neighborhood_POIs/au-logan-city/springwood/","Springwood","Logan City","","Australia","AU","Springwood, Logan City, Australia","-27.6332567","153.1375916","Springwood Central Shopping Centre","central commercial and dining hub"
"02","neighborhoods/au-melbourne/cbd","images/Neighborhood_POIs/au-melbourne/cbd/","CBD","Melbourne","","Australia","AU","CBD, Melbourne, Australia","-37.8179789","144.9690576","Federation Square","Central business district core"
"03","neighborhoods/au-newcastle/honeysuckle","images/Neighborhood_POIs/au-newcastle/honeysuckle/","Honeysuckle","Newcastle","","Australia","AU","Honeysuckle, Newcastle, Australia","-32.922699","151.7702179","Honeysuckle Boardwalk","Revitalized waterfront dining precinct"
"04","neighborhoods/au-perth/perth-cbd","images/Neighborhood_POIs/au-perth/perth-cbd/","Perth CBD","Perth","","Australia","AU","Perth CBD, Perth, Australia","-31.9575763","115.8569874","Elizabeth Quay","central business walkable core"
"05","neighborhoods/au-toowoomba/city-centre","images/Neighborhood_POIs/au-toowoomba/city-centre/","City Centre","Toowoomba","","Australia","AU","City Centre, Toowoomba, Australia","-27.56056","151.95386","Toowoomba city center","Central urban district (auto-added, pop >=100k)"
"06","neighborhoods/au-townsville/the-strand","images/Neighborhood_POIs/au-townsville/the-strand/","The Strand","Townsville","","Australia","AU","The Strand, Townsville, Australia","-19.2456347","146.811226","The Strand","Palm-lined seafront core"
"07","neighborhoods/az-baku/baku-boulevard-seaside","images/Neighborhood_POIs/az-baku/baku-boulevard-seaside/","Baku Boulevard / Seaside","Baku","","Azerbaijan","AZ","Baku Boulevard / Seaside, Baku, Azerbaijan","40.3685254","49.8434891","Baku Boulevard","Scenic waterfront promenade dining"
"08","neighborhoods/az-baku/fountains-square-sahil","images/Neighborhood_POIs/az-baku/fountains-square-sahil/","Fountains Square / Sahil","Baku","","Azerbaijan","AZ","Fountains Square / Sahil, Baku, Azerbaijan","40.37078","49.8364416","Fountains Square","Central pedestrian dining hub"
"09","neighborhoods/az-baku/icherisheher-old-city","images/Neighborhood_POIs/az-baku/icherisheher-old-city/","Icherisheher (Old City)","Baku","","Azerbaijan","AZ","Icherisheher (Old City), Baku, Azerbaijan","40.3661927","49.8372472","Maiden Tower","Historic walkable UNESCO core"
"10","neighborhoods/az-baku/nizami-street","images/Neighborhood_POIs/az-baku/nizami-street/","Nizami Street","Baku","","Azerbaijan","AZ","Nizami Street, Baku, Azerbaijan","40.3722065","49.8377341","Nizami Street","Pedestrian shopping dining strip"
"11","neighborhoods/az-ganja/city-centre","images/Neighborhood_POIs/az-ganja/city-centre/","City Centre","Ganja","","Azerbaijan","AZ","City Centre, Ganja, Azerbaijan","40.68157","46.36134","Ganja city center","Central urban district (auto-added, pop >=100k)"
"12","neighborhoods/az-mingachevir/city-centre","images/Neighborhood_POIs/az-mingachevir/city-centre/","City Centre","Mingachevir","","Azerbaijan","AZ","City Centre, Mingachevir, Azerbaijan","40.76422","47.06227","Mingachevir city center","Central urban district (auto-added, pop >=100k)"
"13","neighborhoods/az-sumqay-t/city-center","images/Neighborhood_POIs/az-sumqay-t/city-center/","City Center","Sumqayıt","","Azerbaijan","AZ","City Center, Sumqayıt, Azerbaijan","40.5946683","49.6824852","Sumqayıt City Central Park","Central district"
"14","neighborhoods/az-yevlakh/city-centre","images/Neighborhood_POIs/az-yevlakh/city-centre/","City Centre","Yevlakh","","Azerbaijan","AZ","City Centre, Yevlakh, Azerbaijan","40.61832","47.15014","Yevlakh city center","Central urban district (auto-added, pop >=100k)"
"15","neighborhoods/ba-banja-luka/city-centre","images/Neighborhood_POIs/ba-banja-luka/city-centre/","City Centre","Banja Luka","","Bosnia and Herzegovina","BA","City Centre, Banja Luka, Bosnia and Herzegovina","44.77879","17.20629","Banja Luka city center","Central urban district (auto-added, pop >=100k)"
"16","neighborhoods/ba-mostar/stari-grad","images/Neighborhood_POIs/ba-mostar/stari-grad/","Stari Grad","Mostar","","Bosnia and Herzegovina","BA","Stari Grad, Mostar, Bosnia and Herzegovina","43.3372839","17.8142668","Stari Grad","Old bridge UNESCO quarter"
"17","neighborhoods/ba-sarajevo/bascarsija","images/Neighborhood_POIs/ba-sarajevo/bascarsija/","Baščaršija","Sarajevo","","Bosnia and Herzegovina","BA","Baščaršija, Sarajevo, Bosnia and Herzegovina","43.8591507","18.4292855","Gazi Husrev-beg Mosque","Historic old town tourist core"
"18","neighborhoods/ba-sarajevo/centar","images/Neighborhood_POIs/ba-sarajevo/centar/","Centar","Sarajevo","","Bosnia and Herzegovina","BA","Centar, Sarajevo, Bosnia and Herzegovina","43.8550434","18.4026223","National Museum of Bosnia and Herzegovina","Central business cultural district"
"19","neighborhoods/ba-sarajevo/marijin-dvor","images/Neighborhood_POIs/ba-sarajevo/marijin-dvor/","Marijin Dvor","Sarajevo","","Bosnia and Herzegovina","BA","Marijin Dvor, Sarajevo, Bosnia and Herzegovina","43.8561615","18.4081742","Marijin Dvor Business Center","Modern central business district"
"00","neighborhoods/ba-tuzla/city-centre","images/Neighborhood_POIs/ba-tuzla/city-centre/","City Centre","Tuzla","","Bosnia and Herzegovina","BA","City Centre, Tuzla, Bosnia and Herzegovina","44.53842","18.66709","Tuzla city center","Central urban district (auto-added, pop >=100k)"
"01","neighborhoods/ba-zenica/city-centre","images/Neighborhood_POIs/ba-zenica/city-centre/","City Centre","Zenica","","Bosnia and Herzegovina","BA","City Centre, Zenica, Bosnia and Herzegovina","44.20169","17.90397","Zenica city center","Central urban district (auto-added, pop >=100k)"
"02","neighborhoods/bd-bagerhat/city-center","images/Neighborhood_POIs/bd-bagerhat/city-center/","City Center","Bagerhat","","Bangladesh","BD","City Center, Bagerhat, Bangladesh","22.6745023","89.7418308","Bagerhat Shat Gambuj Mosque","central town area"
"03","neighborhoods/bd-bandarban/town-centre","images/Neighborhood_POIs/bd-bandarban/town-centre/","Town Centre","Bāndarban","","Bangladesh","BD","Town Centre, Bāndarban, Bangladesh","22.195541","92.2181862","Bandarban DC Office","Central district"
"04","neighborhoods/bd-barishal/city-centre","images/Neighborhood_POIs/bd-barishal/city-centre/","City Centre","Barishal","","Bangladesh","BD","City Centre, Barishal, Bangladesh","22.70497","90.37013","Barishal city center","Central urban district (auto-added, pop >=100k)"
"05","neighborhoods/bd-bhatara/city-center","images/Neighborhood_POIs/bd-bhatara/city-center/","City Center","Bhātāra","","Bangladesh","BD","City Center, Bhātāra, Bangladesh","23.7988755","90.4290557","Bhātāra Central Mosque","dense Dhaka suburban district"
"06","neighborhoods/bd-bogra/city-centre","images/Neighborhood_POIs/bd-bogra/city-centre/","City Centre","Bogra","","Bangladesh","BD","City Centre, Bogra, Bangladesh","24.85098","89.37108","Bogra city center","Central urban district (auto-added, pop >=100k)"
"07","neighborhoods/bd-brahmanbaria/city-center","images/Neighborhood_POIs/bd-brahmanbaria/city-center/","City Center","Brāhmanbāria","","Bangladesh","BD","City Center, Brāhmanbāria, Bangladesh","23.978548","91.107236","Brāhmanbāria Central Mosque","central town area"
"08","neighborhoods/bd-chandpur/city-centre","images/Neighborhood_POIs/bd-chandpur/city-centre/","City Centre","Chāndpur","","Bangladesh","BD","City Centre, Chāndpur, Bangladesh","23.22714","90.65433","Chāndpur city center","Central urban district (auto-added, pop >=100k)"
"09","neighborhoods/bd-chattogram/agrabad","images/Neighborhood_POIs/bd-chattogram/agrabad/","Agrabad","Chattogram","","Bangladesh","BD","Agrabad, Chattogram, Bangladesh","22.3244537","91.8117232","Agrabad Commercial Area","Central business district"
"10","neighborhoods/bd-chattogram/gec-circle","images/Neighborhood_POIs/bd-chattogram/gec-circle/","GEC Circle","Chattogram","","Bangladesh","BD","GEC Circle, Chattogram, Bangladesh","22.3590309","91.821236","GEC Circle Roundabout","Central commercial hub"
"11","neighborhoods/bd-chattogram/khulshi","images/Neighborhood_POIs/bd-chattogram/khulshi/","Khulshi","Chattogram","","Bangladesh","BD","Khulshi, Chattogram, Bangladesh","22.3569692","91.8124585","Khulshi Jame Masjid","Affluent residential and dining area"
"12","neighborhoods/bd-comilla/city-centre","images/Neighborhood_POIs/bd-comilla/city-centre/","City Centre","Comilla","","Bangladesh","BD","City Centre, Comilla, Bangladesh","23.45967","91.1824773","Comilla Victoria College","Central commercial district"
"13","neighborhoods/bd-cox-s-bazar/kolatoli","images/Neighborhood_POIs/bd-cox-s-bazar/kolatoli/","Kolatoli","Cox’s Bāzār","","Bangladesh","BD","Kolatoli, Cox’s Bāzār, Bangladesh","21.414334","91.9831829","Kolatoli Beach","beach tourism hotel district"
"14","neighborhoods/bd-cox-s-bazar/town-center","images/Neighborhood_POIs/bd-cox-s-bazar/town-center/","Town Center","Cox’s Bāzār","","Bangladesh","BD","Town Center, Cox’s Bāzār, Bangladesh","21.4267563","91.9730356","Cox’s Bāzār Main Market","central market area"
"15","neighborhoods/bd-dinajpur/city-centre","images/Neighborhood_POIs/bd-dinajpur/city-centre/","City Centre","Dinajpur","","Bangladesh","BD","City Centre, Dinajpur, Bangladesh","25.62745","88.63779","Dinajpur city center","Central urban district (auto-added, pop >=100k)"
"16","neighborhoods/bd-faridpur/city-centre","images/Neighborhood_POIs/bd-faridpur/city-centre/","City Centre","Farīdpur","","Bangladesh","BD","City Centre, Farīdpur, Bangladesh","23.60612","89.84064","Farīdpur city center","Central urban district (auto-added, pop >=100k)"
"17","neighborhoods/bd-hathazari/town-centre","images/Neighborhood_POIs/bd-hathazari/town-centre/","Town Centre","Hāthazāri","","Bangladesh","BD","Town Centre, Hāthazāri, Bangladesh","22.501586","91.8068252","Hāthazāri Upazila Parishad","Central commercial area"
"18","neighborhoods/bd-jamalpur/city-centre","images/Neighborhood_POIs/bd-jamalpur/city-centre/","City Centre","Jamālpur","","Bangladesh","BD","City Centre, Jamālpur, Bangladesh","24.91965","89.94812","Jamālpur city center","Central urban district (auto-added, pop >=100k)"
"19","neighborhoods/bd-jessore/city-centre","images/Neighborhood_POIs/bd-jessore/city-centre/","City Centre","Jessore","","Bangladesh","BD","City Centre, Jessore, Bangladesh","23.16971","89.21371","Jessore city center","Central urban district (auto-added, pop >=100k)"
"00","neighborhoods/bd-karnaphuli/city-centre","images/Neighborhood_POIs/bd-karnaphuli/city-centre/","City Centre","Karnaphuli","","Bangladesh","BD","City Centre, Karnaphuli, Bangladesh","22.69056","92.23472","Karnaphuli city center","Central urban district (auto-added, pop >=100k)"
"01","neighborhoods/bd-khulna/khulna-sadar","images/Neighborhood_POIs/bd-khulna/khulna-sadar/","Khulna Sadar","Khulna","","Bangladesh","BD","Khulna Sadar, Khulna, Bangladesh","22.818133","89.5596188","Khulna City Central Bus Terminal","Central commercial urban core"
"02","neighborhoods/bd-kushtia/city-centre","images/Neighborhood_POIs/bd-kushtia/city-centre/","City Centre","Kushtia","","Bangladesh","BD","City Centre, Kushtia, Bangladesh","23.9028","89.11943","Kushtia city center","Central urban district (auto-added, pop >=100k)"
"03","neighborhoods/bd-maijdi/city-centre","images/Neighborhood_POIs/bd-maijdi/city-centre/","City Centre","Maijdi","","Bangladesh","BD","City Centre, Maijdi, Bangladesh","22.86667","91.1","Maijdi city center","Central urban district (auto-added, pop >=100k)"
"04","neighborhoods/bd-mirpur-model-thana/mirpur-dohs","images/Neighborhood_POIs/bd-mirpur-model-thana/mirpur-dohs/","Mirpur DOHS","Mirpur Model Thana","","Bangladesh","BD","Mirpur DOHS, Mirpur Model Thana, Bangladesh","23.8362232","90.3675069","Mirpur DOHS Central Mosque","planned affluent residential area"
"05","neighborhoods/bd-mohammadpur/city-centre","images/Neighborhood_POIs/bd-mohammadpur/city-centre/","City Centre","Mohammadpur","","Bangladesh","BD","City Centre, Mohammadpur, Bangladesh","24.89843","88.52844","Mohammadpur city center","Central urban district (auto-added, pop >=100k)"
"06","neighborhoods/bd-mymensingh/city-centre","images/Neighborhood_POIs/bd-mymensingh/city-centre/","City Centre","Mymensingh","","Bangladesh","BD","City Centre, Mymensingh, Bangladesh","24.75636","90.40646","Mymensingh city center","Central urban district (auto-added, pop >=100k)"
"07","neighborhoods/bd-nagar-naluakot/town-centre","images/Neighborhood_POIs/bd-nagar-naluakot/town-centre/","Town Centre","Nagar Naluākot","","Bangladesh","BD","Town Centre, Nagar Naluākot, Bangladesh","24.1493816","90.7806199","Nagar Naluākot Town Hall","Central urban area"
"08","neighborhoods/bd-nagarpur/city-centre","images/Neighborhood_POIs/bd-nagarpur/city-centre/","City Centre","Nāgarpur","","Bangladesh","BD","City Centre, Nāgarpur, Bangladesh","24.05783","89.87696","Nāgarpur city center","Central urban district (auto-added, pop >=100k)"
"09","neighborhoods/bd-narayanganj/city-centre","images/Neighborhood_POIs/bd-narayanganj/city-centre/","City Centre","Narayanganj","","Bangladesh","BD","City Centre, Narayanganj, Bangladesh","23.61352","90.50298","Narayanganj city center","Central urban district (auto-added, pop >=100k)"
"10","neighborhoods/bd-narsingdi/central-bazar","images/Neighborhood_POIs/bd-narsingdi/central-bazar/","Central Bazar","Narsingdi","","Bangladesh","BD","Central Bazar, Narsingdi, Bangladesh","23.9236682","90.7226235","Narsingdi Central Bazar Mosque","dense commercial market core"
"11","neighborhoods/bd-natore/natore-sadar","images/Neighborhood_POIs/bd-natore/natore-sadar/","Natore Sadar","Natore","","Bangladesh","BD","Natore Sadar, Natore, Bangladesh","24.4199621","88.9918797","Natore Rajbari (Natore Palace)","Central town area"
"12","neighborhoods/bd-pabna/city-centre","images/Neighborhood_POIs/bd-pabna/city-centre/","City Centre","Pābna","","Bangladesh","BD","City Centre, Pābna, Bangladesh","24.00644","89.2372","Pābna city center","Central urban district (auto-added, pop >=100k)"
"13","neighborhoods/bd-pallabi/mirpur","images/Neighborhood_POIs/bd-pallabi/mirpur/","Mirpur","Pallabi","","Bangladesh","BD","Mirpur, Pallabi, Bangladesh","23.8072391","90.3686989","Mirpur 10 Bus Stop","dense urban residential area"
"14","neighborhoods/bd-par-naogaon/city-centre","images/Neighborhood_POIs/bd-par-naogaon/city-centre/","City Centre","Pār Naogaon","","Bangladesh","BD","City Centre, Pār Naogaon, Bangladesh","24.80418","88.94875","Pār Naogaon city center","Central urban district (auto-added, pop >=100k)"
"15","neighborhoods/bd-rajshahi/shaheb-bazar","images/Neighborhood_POIs/bd-rajshahi/shaheb-bazar/","Shaheb Bazar","Rajshahi","","Bangladesh","BD","Shaheb Bazar, Rajshahi, Bangladesh","24.3648694","88.6002168","Shaheb Bazar Mosque","Central commercial core"
"16","neighborhoods/bd-rangamati/city-centre","images/Neighborhood_POIs/bd-rangamati/city-centre/","City Centre","Rangamati","","Bangladesh","BD","City Centre, Rangamati, Bangladesh","22.64317","92.19186","Rangamati city center","Central urban district (auto-added, pop >=100k)"
"17","neighborhoods/bd-rangpur/city-centre","images/Neighborhood_POIs/bd-rangpur/city-centre/","City Centre","Rangpur","","Bangladesh","BD","City Centre, Rangpur, Bangladesh","25.7624226","89.2311176","Rangpur City Centre Shopping Mall","Central commercial district"
"18","neighborhoods/bd-saidpur/city-centre","images/Neighborhood_POIs/bd-saidpur/city-centre/","City Centre","Saidpur","","Bangladesh","BD","City Centre, Saidpur, Bangladesh","25.77769","88.89169","Saidpur city center","Central urban district (auto-added, pop >=100k)"
"19","neighborhoods/bd-satkhira/city-centre","images/Neighborhood_POIs/bd-satkhira/city-centre/","City Centre","Sātkhira","","Bangladesh","BD","City Centre, Sātkhira, Bangladesh","22.70817","89.07185","Sātkhira city center","Central urban district (auto-added, pop >=100k)"
"00","neighborhoods/bd-savar/central","images/Neighborhood_POIs/bd-savar/central/","Central","Savar","","Bangladesh","BD","Central, Savar, Bangladesh","23.8344313","90.2569415","Savar Upazila Parishad","town commercial core"
"01","neighborhoods/bd-shahzadpur/city-centre","images/Neighborhood_POIs/bd-shahzadpur/city-centre/","City Centre","Shāhzādpur","","Bangladesh","BD","City Centre, Shāhzādpur, Bangladesh","24.17687","89.5988","Shāhzādpur city center","Central urban district (auto-added, pop >=100k)"
"02","neighborhoods/bd-sherpur/city-centre","images/Neighborhood_POIs/bd-sherpur/city-centre/","City Centre","Sherpur","","Bangladesh","BD","City Centre, Sherpur, Bangladesh","25.01881","90.01751","Sherpur city center","Central urban district (auto-added, pop >=100k)"
"03","neighborhoods/bd-shibganj/town-center","images/Neighborhood_POIs/bd-shibganj/town-center/","Town Center","Shibganj","","Bangladesh","BD","Town Center, Shibganj, Bangladesh","24.6877892","88.1587068","Shibganj Upazila Complex","Main central area"
"04","neighborhoods/bd-sirajganj/city-centre","images/Neighborhood_POIs/bd-sirajganj/city-centre/","City Centre","Sirajganj","","Bangladesh","BD","City Centre, Sirajganj, Bangladesh","24.45771","89.70802","Sirajganj city center","Central urban district (auto-added, pop >=100k)"
"05","neighborhoods/bd-sonargaon/city-centre","images/Neighborhood_POIs/bd-sonargaon/city-centre/","City Centre","Sonārgaon","","Bangladesh","BD","City Centre, Sonārgaon, Bangladesh","23.65","90.61667","Sonārgaon city center","Central urban district (auto-added, pop >=100k)"
"06","neighborhoods/bd-sylhet/city-centre","images/Neighborhood_POIs/bd-sylhet/city-centre/","City Centre","Sylhet","","Bangladesh","BD","City Centre, Sylhet, Bangladesh","24.89904","91.87198","Sylhet city center","Central urban district (auto-added, pop >=100k)"
"07","neighborhoods/bd-tangail/city-centre","images/Neighborhood_POIs/bd-tangail/city-centre/","City Centre","Tangail","","Bangladesh","BD","City Centre, Tangail, Bangladesh","24.24984","89.91655","Tangail city center","Central urban district (auto-added, pop >=100k)"
"08","neighborhoods/bd-tungipara/city-centre","images/Neighborhood_POIs/bd-tungipara/city-centre/","City Centre","Tungipara","","Bangladesh","BD","City Centre, Tungipara, Bangladesh","22.89983","89.90326","Tungipara city center","Central urban district (auto-added, pop >=100k)"
"09","neighborhoods/be-antwerpen/eilandje","images/Neighborhood_POIs/be-antwerpen/eilandje/","Eilandje","Antwerpen","","Belgium","BE","Eilandje, Antwerpen, Belgium","51.2289612","4.4047104","MAS Museum aan de Stroom","Regenerated waterfront creative district"
"10","neighborhoods/be-antwerpen/het-zuid-zuid","images/Neighborhood_POIs/be-antwerpen/het-zuid-zuid/","Het Zuid (Zuid)","Antwerpen","","Belgium","BE","Het Zuid (Zuid), Antwerpen, Belgium","51.2110185","4.3899463","Museum of Contemporary Art Antwerp (M HKA)","Trendy galleries dining cafes"
"11","neighborhoods/be-antwerpen/historic-centre-old-town","images/Neighborhood_POIs/be-antwerpen/historic-centre-old-town/","Historic Centre / Old Town","Antwerpen","","Belgium","BE","Historic Centre / Old Town, Antwerpen, Belgium","51.2203702","4.4015342","Cathedral of Our Lady Antwerp","Walkable historic cultural core"
"12","neighborhoods/be-antwerpen/university-quarter","images/Neighborhood_POIs/be-antwerpen/university-quarter/","University Quarter","Antwerpen","","Belgium","BE","University Quarter, Antwerpen, Belgium","51.2228074","4.410239","University of Antwerp","Walkable student professional area"
"13","neighborhoods/be-bruges/historic-centre","images/Neighborhood_POIs/be-bruges/historic-centre/","Historic Centre","Bruges","","Belgium","BE","Historic Centre, Bruges, Belgium","51.2101679","3.2270891","Historic Centre of Brugge","UNESCO canalside medieval core"
"14","neighborhoods/be-brussels/city-centre","images/Neighborhood_POIs/be-brussels/city-centre/","City Centre","Brussels","","Belgium","BE","City Centre, Brussels, Belgium","50.8467887","4.3524356","Grand Place","Historic walkable core"
"15","neighborhoods/be-brussels/sablon","images/Neighborhood_POIs/be-brussels/sablon/","Sablon","Brussels","","Belgium","BE","Sablon, Brussels, Belgium","50.8395691","4.3565988","Sablon Square","Upscale antiques and dining quarter"
"16","neighborhoods/be-brussels/saint-gilles","images/Neighborhood_POIs/be-brussels/saint-gilles/","Saint-Gilles","Brussels","","Belgium","BE","Saint-Gilles, Brussels, Belgium","50.8305874","4.3454699","Parvis de Saint-Gilles","Creative bohemian cafe area"
"17","neighborhoods/be-charleroi/city-centre","images/Neighborhood_POIs/be-charleroi/city-centre/","City Centre","Charleroi","","Belgium","BE","City Centre, Charleroi, Belgium","50.41136","4.44448","Charleroi city center","Central urban district (auto-added, pop >=100k)"
"18","neighborhoods/be-gent/kuip-historic-center","images/Neighborhood_POIs/be-gent/kuip-historic-center/","Kuip (Historic Center)","Gent","","Belgium","BE","Kuip (Historic Center), Gent, Belgium","51.0571769","3.7207225","Gravensteen Castle","walkable central tourist district"
"19","neighborhoods/be-gent/sint-pieters","images/Neighborhood_POIs/be-gent/sint-pieters/","Sint-Pieters","Gent","","Belgium","BE","Sint-Pieters, Gent, Belgium","51.0361132","3.7108392","Gent-Sint-Pieters Railway Station","station area upscale walkable"
"00","neighborhoods/be-leuven/binnenstad","images/Neighborhood_POIs/be-leuven/binnenstad/","Binnenstad","Leuven","","Belgium","BE","Binnenstad, Leuven, Belgium","50.87959","4.70093","Leuven city center","University-town beer core"
"01","neighborhoods/be-liege/le-carre","images/Neighborhood_POIs/be-liege/le-carre/","Le Carré","Liège","","Belgium","BE","Le Carré, Liège, Belgium","50.6415047","5.5691883","Le Carré","Compact nightlife-and-dining core"
"02","neighborhoods/be-namur/city-centre","images/Neighborhood_POIs/be-namur/city-centre/","City Centre","Namur","","Belgium","BE","City Centre, Namur, Belgium","50.4669","4.86746","Namur city center","Central urban district (auto-added, pop >=100k)"
"03","neighborhoods/bf-banfora/city-centre","images/Neighborhood_POIs/bf-banfora/city-centre/","City Centre","Banfora","","Burkina Faso","BF","City Centre, Banfora, Burkina Faso","10.64064","-4.75285","Banfora city center","Central urban district (auto-added, pop >=100k)"
"04","neighborhoods/bf-bobo-dioulasso/city-centre","images/Neighborhood_POIs/bf-bobo-dioulasso/city-centre/","City Centre","Bobo-Dioulasso","","Burkina Faso","BF","City Centre, Bobo-Dioulasso, Burkina Faso","11.1777967","-4.2960214","Grand Mosque of Bobo-Dioulasso","historic central commercial area"
"05","neighborhoods/bf-kaya/city-centre","images/Neighborhood_POIs/bf-kaya/city-centre/","City Centre","Kaya","","Burkina Faso","BF","City Centre, Kaya, Burkina Faso","13.0883","-1.08368","Kaya city center","Central urban district (auto-added, pop >=100k)"
"06","neighborhoods/bf-koudougou/city-centre","images/Neighborhood_POIs/bf-koudougou/city-centre/","City Centre","Koudougou","","Burkina Faso","BF","City Centre, Koudougou, Burkina Faso","12.25188","-2.36694","Koudougou city center","Central urban district (auto-added, pop >=100k)"
"07","neighborhoods/bf-ouagadougou/koulouba","images/Neighborhood_POIs/bf-ouagadougou/koulouba/","Koulouba","Ouagadougou","","Burkina Faso","BF","Koulouba, Ouagadougou, Burkina Faso","12.6703498","-8.0110078","Koulouba Palace","central administrative business district"
"08","neighborhoods/bf-ouagadougou/ouaga-2000","images/Neighborhood_POIs/bf-ouagadougou/ouaga-2000/","Ouaga 2000","Ouagadougou","","Burkina Faso","BF","Ouaga 2000, Ouagadougou, Burkina Faso","12.3167832","-1.5272094","Ouaga 2000 Mosque","modern upscale planned district"
"09","neighborhoods/bf-ouahigouya/city-centre","images/Neighborhood_POIs/bf-ouahigouya/city-centre/","City Centre","Ouahigouya","","Burkina Faso","BF","City Centre, Ouahigouya, Burkina Faso","13.5769","-2.41786","Ouahigouya city center","Central urban district (auto-added, pop >=100k)"
"10","neighborhoods/bf-saaba/city-centre","images/Neighborhood_POIs/bf-saaba/city-centre/","City Centre","Saaba","","Burkina Faso","BF","City Centre, Saaba, Burkina Faso","12.37136","-1.41468","Saaba city center","Central urban district (auto-added, pop >=100k)"
"11","neighborhoods/bg-burgas/tsentar","images/Neighborhood_POIs/bg-burgas/tsentar/","Tsentar","Burgas","","Bulgaria","BG","Tsentar, Burgas, Bulgaria","42.50651","27.46886","Burgas city center","Sea-garden city centre"
"12","neighborhoods/bg-plovdiv/city-center","images/Neighborhood_POIs/bg-plovdiv/city-center/","City Center","Plovdiv","","Bulgaria","BG","City Center, Plovdiv, Bulgaria","42.1471279","24.7511529","Plovdiv Roman Theatre","central commercial pedestrian core"
"13","neighborhoods/bg-plovdiv/kapana","images/Neighborhood_POIs/bg-plovdiv/kapana/","Kapana","Plovdiv","","Bulgaria","BG","Kapana, Plovdiv, Bulgaria","42.1494759","24.7472617","Kapana Creative District","trendy creative arts dining district"
"14","neighborhoods/bg-ruse/tsentar","images/Neighborhood_POIs/bg-ruse/tsentar/","Tsentar","Ruse","","Bulgaria","BG","Tsentar, Ruse, Bulgaria","43.84872","25.9534","Ruse city center","Viennese-style Danube centre"
"15","neighborhoods/bg-sofia/doctor-s-garden","images/Neighborhood_POIs/bg-sofia/doctor-s-garden/","Doctor's Garden","Sofia","","Bulgaria","BG","Doctor's Garden, Sofia, Bulgaria","42.6949714","23.3397754","Doctor's Garden (Doktorska Gradina)","Central upscale dining quarter"
"16","neighborhoods/bg-sofia/vitosha-boulevard","images/Neighborhood_POIs/bg-sofia/vitosha-boulevard/","Vitosha Boulevard","Sofia","","Bulgaria","BG","Vitosha Boulevard, Sofia, Bulgaria","42.6858566","23.3178699","Vitosha Boulevard","Pedestrian dining shopping strip"
"17","neighborhoods/bg-stara-zagora/city-centre","images/Neighborhood_POIs/bg-stara-zagora/city-centre/","City Centre","Stara Zagora","","Bulgaria","BG","City Centre, Stara Zagora, Bulgaria","42.43205","25.64262","Stara Zagora city center","Central urban district (auto-added, pop >=100k)"
"18","neighborhoods/bg-varna/greek-quarter","images/Neighborhood_POIs/bg-varna/greek-quarter/","Greek Quarter","Varna","","Bulgaria","BG","Greek Quarter, Varna, Bulgaria","43.1995507","27.9176886","Greek Quarter Varna","historic boutique dining district"
"19","neighborhoods/bh-al-muharraq/old-muharraq","images/Neighborhood_POIs/bh-al-muharraq/old-muharraq/","Old Muharraq","Al Muharraq","","Bahrain","BH","Old Muharraq, Al Muharraq, Bahrain","26.2550158","50.6136295","Old Market Cold Sotre","Pearling-path heritage quarter"
"00","neighborhoods/bh-ar-rifa/city-centre","images/Neighborhood_POIs/bh-ar-rifa/city-centre/","City Centre","Ar Rifā‘","","Bahrain","BH","City Centre, Ar Rifā‘, Bahrain","26.13","50.555","Ar Rifā‘ city center","Central urban district (auto-added, pop >=100k)"
"01","neighborhoods/bh-madinat-hamad/city-centre","images/Neighborhood_POIs/bh-madinat-hamad/city-centre/","City Centre","Madīnat Ḩamad","","Bahrain","BH","City Centre, Madīnat Ḩamad, Bahrain","26.11528","50.50694","Madīnat Ḩamad city center","Central urban district (auto-added, pop >=100k)"
"02","neighborhoods/bi-bujumbura/centre-ville","images/Neighborhood_POIs/bi-bujumbura/centre-ville/","Centre-ville","Bujumbura","","Burundi","BI","Centre-ville, Bujumbura, Burundi","-3.3849052","29.365752","Bujumbura Central Market","Downtown commercial core"
"03","neighborhoods/bi-bujumbura/kiriri","images/Neighborhood_POIs/bi-bujumbura/kiriri/","Kiriri","Bujumbura","","Burundi","BI","Kiriri, Bujumbura, Burundi","-3.3909752","29.3900961","Kiriri Hill Viewpoint","Affluent residential hillside area"
"04","neighborhoods/bi-bujumbura/rohero","images/Neighborhood_POIs/bi-bujumbura/rohero/","Rohero","Bujumbura","","Burundi","BI","Rohero, Bujumbura, Burundi","-3.3833825","29.3656908","Rohero Market","Central commercial diplomatic district"
"05","neighborhoods/bj-abomey/city-centre","images/Neighborhood_POIs/bj-abomey/city-centre/","City Centre","Abomey","","Benin","BJ","City Centre, Abomey, Benin","7.18286","1.99119","Abomey city center","Central urban district (auto-added, pop >=100k)"
"06","neighborhoods/bj-abomey-calavi/town-center","images/Neighborhood_POIs/bj-abomey-calavi/town-center/","Town Center","Abomey-Calavi","","Benin","BJ","Town Center, Abomey-Calavi, Benin","6.459426","2.355314","Abomey-Calavi Town Hall","Main central district"
"07","neighborhoods/bj-cotonou/cadjehoun","images/Neighborhood_POIs/bj-cotonou/cadjehoun/","Cadjehoun","Cotonou","","Benin","BJ","Cadjehoun, Cotonou, Benin","6.3617476","2.397833","Cadjehoun Central Mosque","affluent central residential area"
"08","neighborhoods/bj-cotonou/haie-vive","images/Neighborhood_POIs/bj-cotonou/haie-vive/","Haie Vive","Cotonou","","Benin","BJ","Haie Vive, Cotonou, Benin","6.3567121","2.389748","Haie Vive Market","upscale expat residential district"
"09","neighborhoods/bj-godome/centre","images/Neighborhood_POIs/bj-godome/centre/","Centre","Godomè","","Benin","BJ","Centre, Godomè, Benin","6.3953893","2.3453671","Godomè Market","suburban commercial area"
"10","neighborhoods/bj-parakou/centre-ville","images/Neighborhood_POIs/bj-parakou/centre-ville/","Centre-ville","Parakou","","Benin","BJ","Centre-ville, Parakou, Benin","9.3495102","2.6102809","Parakou Central Market","central commercial district"
"11","neighborhoods/bj-porto-novo/city-center","images/Neighborhood_POIs/bj-porto-novo/city-center/","City Center","Porto-Novo","","Benin","BJ","City Center, Porto-Novo, Benin","6.4706674","2.6088757","Palais des Gouverneurs","central administrative district"
"12","neighborhoods/bo-cochabamba/el-prado","images/Neighborhood_POIs/bo-cochabamba/el-prado/","El Prado","Cochabamba","","Bolivia","BO","El Prado, Cochabamba, Bolivia","-17.3846452","-66.1581648","El Prado Avenue","central avenue commercial hub"
"13","neighborhoods/bo-cochabamba/recoleta","images/Neighborhood_POIs/bo-cochabamba/recoleta/","Recoleta","Cochabamba","","Bolivia","BO","Recoleta, Cochabamba, Bolivia","-17.3784817","-66.150626","Recoleta Park","upscale dining and nightlife district"
"14","neighborhoods/bo-la-paz/calacoto","images/Neighborhood_POIs/bo-la-paz/calacoto/","Calacoto","La Paz","","Bolivia","BO","Calacoto, La Paz, Bolivia","-16.5423004","-68.0769395","Calacoto Shopping Center","Upscale commercial residential district"
"15","neighborhoods/bo-la-paz/zona-sur","images/Neighborhood_POIs/bo-la-paz/zona-sur/","Zona Sur","La Paz","","Bolivia","BO","Zona Sur, La Paz, Bolivia","-16.5730433","-68.0834291","Mallasa Park","Affluent modern residential area"
"16","neighborhoods/bo-oruro/city-centre","images/Neighborhood_POIs/bo-oruro/city-centre/","City Centre","Oruro","","Bolivia","BO","City Centre, Oruro, Bolivia","-17.97153","-67.0932","Oruro city center","Central urban district (auto-added, pop >=100k)"
"17","neighborhoods/bo-potosi/city-centre","images/Neighborhood_POIs/bo-potosi/city-centre/","City Centre","Potosí","","Bolivia","BO","City Centre, Potosí, Bolivia","-19.58361","-65.75306","Potosí city center","Central urban district (auto-added, pop >=100k)"
"18","neighborhoods/bo-santa-cruz-de-la-sierra/centro","images/Neighborhood_POIs/bo-santa-cruz-de-la-sierra/centro/","Centro","Santa Cruz de la Sierra","","Bolivia","BO","Centro, Santa Cruz de la Sierra, Bolivia","-17.7830544","-63.182131","Plaza 24 de Septiembre","Historic central urban core"
"19","neighborhoods/bo-santa-cruz-de-la-sierra/equipetrol","images/Neighborhood_POIs/bo-santa-cruz-de-la-sierra/equipetrol/","Equipetrol","Santa Cruz de la Sierra","","Bolivia","BO","Equipetrol, Santa Cruz de la Sierra, Bolivia","-17.7545595","-63.1991301","Equipetrol Shopping Mall","Upscale dining nightlife district"
"00","neighborhoods/bo-santa-cruz-de-la-sierra/las-palmas","images/Neighborhood_POIs/bo-santa-cruz-de-la-sierra/las-palmas/","Las Palmas","Santa Cruz de la Sierra","","Bolivia","BO","Las Palmas, Santa Cruz de la Sierra, Bolivia","-17.8051395","-63.2050635","Las Palmas Park","Affluent residential district"
"01","neighborhoods/bo-sucre/city-centre","images/Neighborhood_POIs/bo-sucre/city-centre/","City Centre","Sucre","","Bolivia","BO","City Centre, Sucre, Bolivia","-19.03332","-65.26274","Sucre city center","Central urban district (auto-added, pop >=100k)"
"02","neighborhoods/bo-tarija/city-centre","images/Neighborhood_POIs/bo-tarija/city-centre/","City Centre","Tarija","","Bolivia","BO","City Centre, Tarija, Bolivia","-21.53549","-64.72956","Tarija city center","Central urban district (auto-added, pop >=100k)"
"03","neighborhoods/br-abaetetuba/city-centre","images/Neighborhood_POIs/br-abaetetuba/city-centre/","City Centre","Abaetetuba","","Brazil","BR","City Centre, Abaetetuba, Brazil","-1.71806","-48.8825","Abaetetuba city center","Central urban district (auto-added, pop >=100k)"
"04","neighborhoods/br-acailandia/city-centre","images/Neighborhood_POIs/br-acailandia/city-centre/","City Centre","Açailândia","","Brazil","BR","City Centre, Açailândia, Brazil","-4.94667","-47.50472","Açailândia city center","Central urban district (auto-added, pop >=100k)"
"05","neighborhoods/br-alagoinhas/city-centre","images/Neighborhood_POIs/br-alagoinhas/city-centre/","City Centre","Alagoinhas","","Brazil","BR","City Centre, Alagoinhas, Brazil","-12.13556","-38.41917","Alagoinhas city center","Central urban district (auto-added, pop >=100k)"
"06","neighborhoods/br-altamira/city-centre","images/Neighborhood_POIs/br-altamira/city-centre/","City Centre","Altamira","","Brazil","BR","City Centre, Altamira, Brazil","-3.20333","-52.20639","Altamira city center","Central urban district (auto-added, pop >=100k)"
"07","neighborhoods/br-anapolis/centro","images/Neighborhood_POIs/br-anapolis/centro/","Centro","Anápolis","","Brazil","BR","Centro, Anápolis, Brazil","-16.3276878","-48.9572891","Praça Bom Jesus","central commercial district"
"08","neighborhoods/br-angra-dos-reis/city-centre","images/Neighborhood_POIs/br-angra-dos-reis/city-centre/","City Centre","Angra dos Reis","","Brazil","BR","City Centre, Angra dos Reis, Brazil","-23.00667","-44.31806","Angra dos Reis city center","Central urban district (auto-added, pop >=100k)"
"09","neighborhoods/br-aparecida-de-goiania/centro","images/Neighborhood_POIs/br-aparecida-de-goiania/centro/","Centro","Aparecida de Goiânia","","Brazil","BR","Centro, Aparecida de Goiânia, Brazil","-16.8226492","-49.2451936","Praça da Matriz","Central commercial district"
"10","neighborhoods/br-apucarana/city-centre","images/Neighborhood_POIs/br-apucarana/city-centre/","City Centre","Apucarana","","Brazil","BR","City Centre, Apucarana, Brazil","-23.55083","-51.46083","Apucarana city center","Central urban district (auto-added, pop >=100k)"
"11","neighborhoods/br-aracatuba/city-centre","images/Neighborhood_POIs/br-aracatuba/city-centre/","City Centre","Araçatuba","","Brazil","BR","City Centre, Araçatuba, Brazil","-21.20889","-50.43278","Araçatuba city center","Central urban district (auto-added, pop >=100k)"
"12","neighborhoods/br-araguaina/city-centre","images/Neighborhood_POIs/br-araguaina/city-centre/","City Centre","Araguaína","","Brazil","BR","City Centre, Araguaína, Brazil","-7.19111","-48.20722","Araguaína city center","Central urban district (auto-added, pop >=100k)"
"13","neighborhoods/br-araguari/city-centre","images/Neighborhood_POIs/br-araguari/city-centre/","City Centre","Araguari","","Brazil","BR","City Centre, Araguari, Brazil","-18.64722","-48.18722","Araguari city center","Central urban district (auto-added, pop >=100k)"
"14","neighborhoods/br-arapiraca/city-centre","images/Neighborhood_POIs/br-arapiraca/city-centre/","City Centre","Arapiraca","","Brazil","BR","City Centre, Arapiraca, Brazil","-9.7525","-36.66111","Arapiraca city center","Central urban district (auto-added, pop >=100k)"
"15","neighborhoods/br-arapongas/city-centre","images/Neighborhood_POIs/br-arapongas/city-centre/","City Centre","Arapongas","","Brazil","BR","City Centre, Arapongas, Brazil","-23.41944","-51.42444","Arapongas city center","Central urban district (auto-added, pop >=100k)"
"16","neighborhoods/br-araraquara/city-centre","images/Neighborhood_POIs/br-araraquara/city-centre/","City Centre","Araraquara","","Brazil","BR","City Centre, Araraquara, Brazil","-21.79444","-48.17556","Araraquara city center","Central urban district (auto-added, pop >=100k)"
"17","neighborhoods/br-araras/city-centre","images/Neighborhood_POIs/br-araras/city-centre/","City Centre","Araras","","Brazil","BR","City Centre, Araras, Brazil","-22.35694","-47.38417","Araras city center","Central urban district (auto-added, pop >=100k)"
"18","neighborhoods/br-araruama/city-centre","images/Neighborhood_POIs/br-araruama/city-centre/","City Centre","Araruama","","Brazil","BR","City Centre, Araruama, Brazil","-22.87278","-42.34306","Araruama city center","Central urban district (auto-added, pop >=100k)"
"19","neighborhoods/br-araucaria/city-centre","images/Neighborhood_POIs/br-araucaria/city-centre/","City Centre","Araucária","","Brazil","BR","City Centre, Araucária, Brazil","-25.59306","-49.41028","Araucária city center","Central urban district (auto-added, pop >=100k)"
"00","neighborhoods/br-araxa/city-centre","images/Neighborhood_POIs/br-araxa/city-centre/","City Centre","Araxá","","Brazil","BR","City Centre, Araxá, Brazil","-19.59333","-46.94056","Araxá city center","Central urban district (auto-added, pop >=100k)"
"01","neighborhoods/br-assis/city-centre","images/Neighborhood_POIs/br-assis/city-centre/","City Centre","Assis","","Brazil","BR","City Centre, Assis, Brazil","-22.66167","-50.41222","Assis city center","Central urban district (auto-added, pop >=100k)"
"02","neighborhoods/br-atibaia/city-centre","images/Neighborhood_POIs/br-atibaia/city-centre/","City Centre","Atibaia","","Brazil","BR","City Centre, Atibaia, Brazil","-23.11694","-46.55028","Atibaia city center","Central urban district (auto-added, pop >=100k)"
"03","neighborhoods/br-bacabal/city-centre","images/Neighborhood_POIs/br-bacabal/city-centre/","City Centre","Bacabal","","Brazil","BR","City Centre, Bacabal, Brazil","-4.23246","-44.78164","Bacabal city center","Central urban district (auto-added, pop >=100k)"
"04","neighborhoods/br-balsas/city-centre","images/Neighborhood_POIs/br-balsas/city-centre/","City Centre","Balsas","","Brazil","BR","City Centre, Balsas, Brazil","-7.5325","-46.03556","Balsas city center","Central urban district (auto-added, pop >=100k)"
"05","neighborhoods/br-barbacena/city-centre","images/Neighborhood_POIs/br-barbacena/city-centre/","City Centre","Barbacena","","Brazil","BR","City Centre, Barbacena, Brazil","-21.22583","-43.77361","Barbacena city center","Central urban district (auto-added, pop >=100k)"
"06","neighborhoods/br-barreiras/city-centre","images/Neighborhood_POIs/br-barreiras/city-centre/","City Centre","Barreiras","","Brazil","BR","City Centre, Barreiras, Brazil","-12.15278","-44.99","Barreiras city center","Central urban district (auto-added, pop >=100k)"
"07","neighborhoods/br-barretos/city-centre","images/Neighborhood_POIs/br-barretos/city-centre/","City Centre","Barretos","","Brazil","BR","City Centre, Barretos, Brazil","-20.55722","-48.56778","Barretos city center","Central urban district (auto-added, pop >=100k)"
"08","neighborhoods/br-barueri/centro","images/Neighborhood_POIs/br-barueri/centro/","Centro","Barueri","","Brazil","BR","Centro, Barueri, Brazil","-15.8006689","-47.8612811","Praça dos Três Poderes","central commercial core"
"09","neighborhoods/br-belford-roxo/centro","images/Neighborhood_POIs/br-belford-roxo/centro/","Centro","Belford Roxo","","Brazil","BR","Centro, Belford Roxo, Brazil","-22.7608022","-43.4135846","Praça São Clemente","Central commercial district"
"10","neighborhoods/br-bento-goncalves/city-centre","images/Neighborhood_POIs/br-bento-goncalves/city-centre/","City Centre","Bento Gonçalves","","Brazil","BR","City Centre, Bento Gonçalves, Brazil","-29.17139","-51.51917","Bento Gonçalves city center","Central urban district (auto-added, pop >=100k)"
"11","neighborhoods/br-birigui/city-centre","images/Neighborhood_POIs/br-birigui/city-centre/","City Centre","Birigui","","Brazil","BR","City Centre, Birigui, Brazil","-21.28861","-50.34","Birigui city center","Central urban district (auto-added, pop >=100k)"
"12","neighborhoods/br-blumenau/vila-germanica","images/Neighborhood_POIs/br-blumenau/vila-germanica/","Vila Germânica","Blumenau","","Brazil","BR","Vila Germânica, Blumenau, Brazil","-26.9153594","-49.0844385","Vila Germânica Park","German-themed tourist district"
"13","neighborhoods/br-botucatu/city-centre","images/Neighborhood_POIs/br-botucatu/city-centre/","City Centre","Botucatu","","Brazil","BR","City Centre, Botucatu, Brazil","-22.88583","-48.445","Botucatu city center","Central urban district (auto-added, pop >=100k)"
"14","neighborhoods/br-braganca/city-centre","images/Neighborhood_POIs/br-braganca/city-centre/","City Centre","Bragança","","Brazil","BR","City Centre, Bragança, Brazil","-1.05361","-46.76556","Bragança city center","Central urban district (auto-added, pop >=100k)"
"15","neighborhoods/br-braganca-paulista/city-centre","images/Neighborhood_POIs/br-braganca-paulista/city-centre/","City Centre","Bragança Paulista","","Brazil","BR","City Centre, Bragança Paulista, Brazil","-22.9527","-46.54418","Bragança Paulista city center","Central urban district (auto-added, pop >=100k)"
"16","neighborhoods/br-breves/city-centre","images/Neighborhood_POIs/br-breves/city-centre/","City Centre","Breves","","Brazil","BR","City Centre, Breves, Brazil","-1.68222","-50.48028","Breves city center","Central urban district (auto-added, pop >=100k)"
"17","neighborhoods/br-brusque/city-centre","images/Neighborhood_POIs/br-brusque/city-centre/","City Centre","Brusque","","Brazil","BR","City Centre, Brusque, Brazil","-27.09795","-48.91281","Brusque city center","Central urban district (auto-added, pop >=100k)"
"18","neighborhoods/br-cachoeiro-de-itapemirim/city-centre","images/Neighborhood_POIs/br-cachoeiro-de-itapemirim/city-centre/","City Centre","Cachoeiro de Itapemirim","","Brazil","BR","City Centre, Cachoeiro de Itapemirim, Brazil","-20.84889","-41.11278","Cachoeiro de Itapemirim city center","Central urban district (auto-added, pop >=100k)"
"19","neighborhoods/br-caieiras/city-centre","images/Neighborhood_POIs/br-caieiras/city-centre/","City Centre","Caieiras","","Brazil","BR","City Centre, Caieiras, Brazil","-23.36417","-46.74056","Caieiras city center","Central urban district (auto-added, pop >=100k)"
"00","neighborhoods/br-camacari/city-centre","images/Neighborhood_POIs/br-camacari/city-centre/","City Centre","Camaçari","","Brazil","BR","City Centre, Camaçari, Brazil","-12.6975","-38.32417","Camaçari city center","Central urban district (auto-added, pop >=100k)"
"01","neighborhoods/br-cameta/city-centre","images/Neighborhood_POIs/br-cameta/city-centre/","City Centre","Cametá","","Brazil","BR","City Centre, Cametá, Brazil","-2.24444","-49.49583","Cametá city center","Central urban district (auto-added, pop >=100k)"
"02","neighborhoods/br-campinas/centro","images/Neighborhood_POIs/br-campinas/centro/","Centro","Campinas","","Brazil","BR","Centro, Campinas, Brazil","-22.9034266","-47.0564698","Praça Carlos Gomes","Central commercial core"
"03","neighborhoods/br-campo-grande/centro","images/Neighborhood_POIs/br-campo-grande/centro/","Centro","Campo Grande","","Brazil","BR","Centro, Campo Grande, Brazil","-20.4646931","-54.6162735","Praça Ary Coelho","central commercial core"
"04","neighborhoods/br-campo-largo/city-centre","images/Neighborhood_POIs/br-campo-largo/city-centre/","City Centre","Campo Largo","","Brazil","BR","City Centre, Campo Largo, Brazil","-25.45955","-49.53014","Campo Largo city center","Central urban district (auto-added, pop >=100k)"
"05","neighborhoods/br-campos-dos-goytacazes/centro","images/Neighborhood_POIs/br-campos-dos-goytacazes/centro/","Centro","Campos dos Goytacazes","","Brazil","BR","Centro, Campos dos Goytacazes, Brazil","-21.7556487","-41.3231875","Praça São Salvador","Central commercial district"
"06","neighborhoods/br-capao-redondo/centro","images/Neighborhood_POIs/br-capao-redondo/centro/","Centro","Capao Redondo","","Brazil","BR","Centro, Capao Redondo, Brazil","-23.6806819","-46.7693051","Praça Central de Capão Redondo","Central district"
"07","neighborhoods/br-caraguatatuba/city-centre","images/Neighborhood_POIs/br-caraguatatuba/city-centre/","City Centre","Caraguatatuba","","Brazil","BR","City Centre, Caraguatatuba, Brazil","-23.62028","-45.41306","Caraguatatuba city center","Central urban district (auto-added, pop >=100k)"
"08","neighborhoods/br-carapicuiba/centro","images/Neighborhood_POIs/br-carapicuiba/centro/","Centro","Carapicuíba","","Brazil","BR","Centro, Carapicuíba, Brazil","-23.5234725","-46.8361826","Praça da Matriz","Central commercial district"
"09","neighborhoods/br-cariacica/centro","images/Neighborhood_POIs/br-cariacica/centro/","Centro","Cariacica","","Brazil","BR","Centro, Cariacica, Brazil","-20.2641877","-40.4198046","Praça da Matriz de Cariacica","central commercial district"
"10","neighborhoods/br-caruaru/centro","images/Neighborhood_POIs/br-caruaru/centro/","Centro","Caruaru","","Brazil","BR","Centro, Caruaru, Brazil","-8.27718","-35.9826906","Praça da Bandeira","Central commercial district"
"11","neighborhoods/br-castanhal/city-centre","images/Neighborhood_POIs/br-castanhal/city-centre/","City Centre","Castanhal","","Brazil","BR","City Centre, Castanhal, Brazil","-1.29389","-47.92639","Castanhal city center","Central urban district (auto-added, pop >=100k)"
"12","neighborhoods/br-catalao/city-centre","images/Neighborhood_POIs/br-catalao/city-centre/","City Centre","Catalão","","Brazil","BR","City Centre, Catalão, Brazil","-18.16583","-47.94639","Catalão city center","Central urban district (auto-added, pop >=100k)"
"13","neighborhoods/br-catanduva/city-centre","images/Neighborhood_POIs/br-catanduva/city-centre/","City Centre","Catanduva","","Brazil","BR","City Centre, Catanduva, Brazil","-21.13778","-48.97278","Catanduva city center","Central urban district (auto-added, pop >=100k)"
"14","neighborhoods/br-caxias/city-centre","images/Neighborhood_POIs/br-caxias/city-centre/","City Centre","Caxias","","Brazil","BR","City Centre, Caxias, Brazil","-4.85889","-43.35611","Caxias city center","Central urban district (auto-added, pop >=100k)"
"15","neighborhoods/br-ceilandia/central","images/Neighborhood_POIs/br-ceilandia/central/","Central","Ceilândia","","Brazil","BR","Central, Ceilândia, Brazil","-15.8166702","-48.1046504","Feira Permanente de Ceilândia","satellite city commercial core"
"16","neighborhoods/br-chapeco/city-centre","images/Neighborhood_POIs/br-chapeco/city-centre/","City Centre","Chapecó","","Brazil","BR","City Centre, Chapecó, Brazil","-27.09639","-52.61833","Chapecó city center","Central urban district (auto-added, pop >=100k)"
"17","neighborhoods/br-codo/city-centre","images/Neighborhood_POIs/br-codo/city-centre/","City Centre","Codó","","Brazil","BR","City Centre, Codó, Brazil","-4.45528","-43.88556","Codó city center","Central urban district (auto-added, pop >=100k)"
"18","neighborhoods/br-colatina/city-centre","images/Neighborhood_POIs/br-colatina/city-centre/","City Centre","Colatina","","Brazil","BR","City Centre, Colatina, Brazil","-19.53944","-40.63056","Colatina city center","Central urban district (auto-added, pop >=100k)"
"19","neighborhoods/br-conselheiro-lafaiete/city-centre","images/Neighborhood_POIs/br-conselheiro-lafaiete/city-centre/","City Centre","Conselheiro Lafaiete","","Brazil","BR","City Centre, Conselheiro Lafaiete, Brazil","-20.66028","-43.78611","Conselheiro Lafaiete city center","Central urban district (auto-added, pop >=100k)"
"00","neighborhoods/br-coronel-fabriciano/city-centre","images/Neighborhood_POIs/br-coronel-fabriciano/city-centre/","City Centre","Coronel Fabriciano","","Brazil","BR","City Centre, Coronel Fabriciano, Brazil","-19.51861","-42.62889","Coronel Fabriciano city center","Central urban district (auto-added, pop >=100k)"
"01","neighborhoods/br-cotia/centro","images/Neighborhood_POIs/br-cotia/centro/","Centro","Cotia","","Brazil","BR","Centro, Cotia, Brazil","-23.6061448","-46.9152175","Cotia City Hall","central commercial district"
"02","neighborhoods/br-crato/city-centre","images/Neighborhood_POIs/br-crato/city-centre/","City Centre","Crato","","Brazil","BR","City Centre, Crato, Brazil","-7.23417","-39.40944","Crato city center","Central urban district (auto-added, pop >=100k)"
"03","neighborhoods/br-criciuma/city-centre","images/Neighborhood_POIs/br-criciuma/city-centre/","City Centre","Criciúma","","Brazil","BR","City Centre, Criciúma, Brazil","-28.6775","-49.36972","Criciúma city center","Central urban district (auto-added, pop >=100k)"
"04","neighborhoods/br-cuiaba/centro","images/Neighborhood_POIs/br-cuiaba/centro/","Centro","Cuiabá","","Brazil","BR","Centro, Cuiabá, Brazil","-15.5974208","-56.0960452","Praça Alencastro","Central commercial district"
"05","neighborhoods/br-cuiaba/goiabeiras","images/Neighborhood_POIs/br-cuiaba/goiabeiras/","Goiabeiras","Cuiabá","","Brazil","BR","Goiabeiras, Cuiabá, Brazil","-15.5685453","-56.0802581","Parque das Águas","Upscale residential area"
"06","neighborhoods/br-divinopolis/city-centre","images/Neighborhood_POIs/br-divinopolis/city-centre/","City Centre","Divinópolis","","Brazil","BR","City Centre, Divinópolis, Brazil","-20.14355","-44.89065","Divinópolis city center","Central urban district (auto-added, pop >=100k)"
"07","neighborhoods/br-dourados/city-centre","images/Neighborhood_POIs/br-dourados/city-centre/","City Centre","Dourados","","Brazil","BR","City Centre, Dourados, Brazil","-22.22111","-54.80556","Dourados city center","Central urban district (auto-added, pop >=100k)"
"08","neighborhoods/br-embu-das-artes/centro-historico","images/Neighborhood_POIs/br-embu-das-artes/centro-historico/","Centro Histórico","Embu das Artes","","Brazil","BR","Centro Histórico, Embu das Artes, Brazil","-23.6492827","-46.852281","Embu das Artes Municipal Market","arts and crafts historic center"
"09","neighborhoods/br-eunapolis/city-centre","images/Neighborhood_POIs/br-eunapolis/city-centre/","City Centre","Eunápolis","","Brazil","BR","City Centre, Eunápolis, Brazil","-16.3775","-39.58028","Eunápolis city center","Central urban district (auto-added, pop >=100k)"
"10","neighborhoods/br-fazenda-rio-grande/city-centre","images/Neighborhood_POIs/br-fazenda-rio-grande/city-centre/","City Centre","Fazenda Rio Grande","","Brazil","BR","City Centre, Fazenda Rio Grande, Brazil","-25.6575","-49.30806","Fazenda Rio Grande city center","Central urban district (auto-added, pop >=100k)"
"11","neighborhoods/br-feira-de-santana/centro","images/Neighborhood_POIs/br-feira-de-santana/centro/","Centro","Feira de Santana","","Brazil","BR","Centro, Feira de Santana, Brazil","-12.2595671","-38.9675892","Praça da Matriz","Central commercial district"
"12","neighborhoods/br-formosa/city-centre","images/Neighborhood_POIs/br-formosa/city-centre/","City Centre","Formosa","","Brazil","BR","City Centre, Formosa, Brazil","-15.53722","-47.33444","Formosa city center","Central urban district (auto-added, pop >=100k)"
"13","neighborhoods/br-foz-do-iguacu/centro","images/Neighborhood_POIs/br-foz-do-iguacu/centro/","Centro","Foz do Iguaçu","","Brazil","BR","Centro, Foz do Iguaçu, Brazil","-25.5901977","-54.5902289","Marco das Três Fronteiras","central tourism commercial core"
"14","neighborhoods/br-franca/centro","images/Neighborhood_POIs/br-franca/centro/","Centro","Franca","","Brazil","BR","Centro, Franca, Brazil","-20.537769","-47.4015953","Praça da Matriz","Central commercial area"
"15","neighborhoods/br-franco-da-rocha/city-centre","images/Neighborhood_POIs/br-franco-da-rocha/city-centre/","City Centre","Franco da Rocha","","Brazil","BR","City Centre, Franco da Rocha, Brazil","-23.32167","-46.72694","Franco da Rocha city center","Central urban district (auto-added, pop >=100k)"
"16","neighborhoods/br-gama/city-centre","images/Neighborhood_POIs/br-gama/city-centre/","City Centre","Gama","","Brazil","BR","City Centre, Gama, Brazil","-16.02511","-48.07121","Gama city center","Central urban district (auto-added, pop >=100k)"
"17","neighborhoods/br-garanhuns/city-centre","images/Neighborhood_POIs/br-garanhuns/city-centre/","City Centre","Garanhuns","","Brazil","BR","City Centre, Garanhuns, Brazil","-8.88202","-36.50216","Garanhuns city center","Central urban district (auto-added, pop >=100k)"
"18","neighborhoods/br-goiania/setor-marista","images/Neighborhood_POIs/br-goiania/setor-marista/","Setor Marista","Goiânia","","Brazil","BR","Setor Marista, Goiânia, Brazil","-16.7102509","-49.2370077","Flamboyant Shopping Center","Trendy affluent walkable district"
"19","neighborhoods/br-goiania/setor-oeste","images/Neighborhood_POIs/br-goiania/setor-oeste/","Setor Oeste","Goiânia","","Brazil","BR","Setor Oeste, Goiânia, Brazil","-16.6808408","-49.2563189","Praça Cívica","Central professional dining area"
"00","neighborhoods/br-grajau/town-center","images/Neighborhood_POIs/br-grajau/town-center/","Town Center","Grajaú","","Brazil","BR","Town Center, Grajaú, Brazil","-5.8195203","-46.1582441","Praça da Matriz de Grajaú","Main central district"
"01","neighborhoods/br-guarapuava/city-centre","images/Neighborhood_POIs/br-guarapuava/city-centre/","City Centre","Guarapuava","","Brazil","BR","City Centre, Guarapuava, Brazil","-25.39048","-51.46541","Guarapuava city center","Central urban district (auto-added, pop >=100k)"
"02","neighborhoods/br-guaratingueta/city-centre","images/Neighborhood_POIs/br-guaratingueta/city-centre/","City Centre","Guaratinguetá","","Brazil","BR","City Centre, Guaratinguetá, Brazil","-22.81639","-45.1925","Guaratinguetá city center","Central urban district (auto-added, pop >=100k)"
"03","neighborhoods/br-guarulhos/centro","images/Neighborhood_POIs/br-guarulhos/centro/","Centro","Guarulhos","","Brazil","BR","Centro, Guarulhos, Brazil","-23.4660437","-46.5308551","Praça Getúlio Vargas","Central commercial urban core"
"04","neighborhoods/br-igarassu/city-centre","images/Neighborhood_POIs/br-igarassu/city-centre/","City Centre","Igarassu","","Brazil","BR","City Centre, Igarassu, Brazil","-7.83417","-34.90639","Igarassu city center","Central urban district (auto-added, pop >=100k)"
"05","neighborhoods/br-ilheus/city-centre","images/Neighborhood_POIs/br-ilheus/city-centre/","City Centre","Ilhéus","","Brazil","BR","City Centre, Ilhéus, Brazil","-14.79909","-39.03228","Ilhéus city center","Central urban district (auto-added, pop >=100k)"
"06","neighborhoods/br-imperatriz/city-centre","images/Neighborhood_POIs/br-imperatriz/city-centre/","City Centre","Imperatriz","","Brazil","BR","City Centre, Imperatriz, Brazil","-5.52639","-47.49167","Imperatriz city center","Central urban district (auto-added, pop >=100k)"
"07","neighborhoods/br-indaiatuba/centro","images/Neighborhood_POIs/br-indaiatuba/centro/","Centro","Indaiatuba","","Brazil","BR","Centro, Indaiatuba, Brazil","-23.0909029","-47.218033","Praça Toledo Barros","central commercial core"
"08","neighborhoods/br-ipatinga/city-centre","images/Neighborhood_POIs/br-ipatinga/city-centre/","City Centre","Ipatinga","","Brazil","BR","City Centre, Ipatinga, Brazil","-19.46833","-42.53667","Ipatinga city center","Central urban district (auto-added, pop >=100k)"
"09","neighborhoods/br-ipojuca/city-centre","images/Neighborhood_POIs/br-ipojuca/city-centre/","City Centre","Ipojuca","","Brazil","BR","City Centre, Ipojuca, Brazil","-8.39889","-35.06389","Ipojuca city center","Central urban district (auto-added, pop >=100k)"
"10","neighborhoods/br-itabaiana/city-centre","images/Neighborhood_POIs/br-itabaiana/city-centre/","City Centre","Itabaiana","","Brazil","BR","City Centre, Itabaiana, Brazil","-10.685","-37.42528","Itabaiana city center","Central urban district (auto-added, pop >=100k)"
"11","neighborhoods/br-itabira/city-centre","images/Neighborhood_POIs/br-itabira/city-centre/","City Centre","Itabira","","Brazil","BR","City Centre, Itabira, Brazil","-19.61917","-43.22694","Itabira city center","Central urban district (auto-added, pop >=100k)"
"12","neighborhoods/br-itaborai/city-centre","images/Neighborhood_POIs/br-itaborai/city-centre/","City Centre","Itaboraí","","Brazil","BR","City Centre, Itaboraí, Brazil","-22.74444","-42.85944","Itaboraí city center","Central urban district (auto-added, pop >=100k)"
"13","neighborhoods/br-itabuna/city-centre","images/Neighborhood_POIs/br-itabuna/city-centre/","City Centre","Itabuna","","Brazil","BR","City Centre, Itabuna, Brazil","-14.78556","-39.28028","Itabuna city center","Central urban district (auto-added, pop >=100k)"
"14","neighborhoods/br-itacoatiara/city-centre","images/Neighborhood_POIs/br-itacoatiara/city-centre/","City Centre","Itacoatiara","","Brazil","BR","City Centre, Itacoatiara, Brazil","-3.14306","-58.44417","Itacoatiara city center","Central urban district (auto-added, pop >=100k)"
"15","neighborhoods/br-itaguai/city-centre","images/Neighborhood_POIs/br-itaguai/city-centre/","City Centre","Itaguaí","","Brazil","BR","City Centre, Itaguaí, Brazil","-22.85222","-43.77528","Itaguaí city center","Central urban district (auto-added, pop >=100k)"
"16","neighborhoods/br-itaituba/city-centre","images/Neighborhood_POIs/br-itaituba/city-centre/","City Centre","Itaituba","","Brazil","BR","City Centre, Itaituba, Brazil","-4.27611","-55.98361","Itaituba city center","Central urban district (auto-added, pop >=100k)"
"17","neighborhoods/br-itanhaem/city-centre","images/Neighborhood_POIs/br-itanhaem/city-centre/","City Centre","Itanhaém","","Brazil","BR","City Centre, Itanhaém, Brazil","-24.18306","-46.78889","Itanhaém city center","Central urban district (auto-added, pop >=100k)"
"18","neighborhoods/br-itaperuna/city-centre","images/Neighborhood_POIs/br-itaperuna/city-centre/","City Centre","Itaperuna","","Brazil","BR","City Centre, Itaperuna, Brazil","-21.205","-41.88778","Itaperuna city center","Central urban district (auto-added, pop >=100k)"
"19","neighborhoods/br-itapetininga/city-centre","images/Neighborhood_POIs/br-itapetininga/city-centre/","City Centre","Itapetininga","","Brazil","BR","City Centre, Itapetininga, Brazil","-23.59167","-48.05306","Itapetininga city center","Central urban district (auto-added, pop >=100k)"
"00","neighborhoods/br-itapipoca/city-centre","images/Neighborhood_POIs/br-itapipoca/city-centre/","City Centre","Itapipoca","","Brazil","BR","City Centre, Itapipoca, Brazil","-3.49444","-39.57861","Itapipoca city center","Central urban district (auto-added, pop >=100k)"
"01","neighborhoods/br-itaquaquecetuba/centro","images/Neighborhood_POIs/br-itaquaquecetuba/centro/","Centro","Itaquaquecetuba","","Brazil","BR","Centro, Itaquaquecetuba, Brazil","-23.4759046","-46.3517556","Praça da Matriz de Itaquaquecetuba","Central commercial area"
"02","neighborhoods/br-itatiba/city-centre","images/Neighborhood_POIs/br-itatiba/city-centre/","City Centre","Itatiba","","Brazil","BR","City Centre, Itatiba, Brazil","-23.00583","-46.83889","Itatiba city center","Central urban district (auto-added, pop >=100k)"
"03","neighborhoods/br-itu/city-centre","images/Neighborhood_POIs/br-itu/city-centre/","City Centre","Itu","","Brazil","BR","City Centre, Itu, Brazil","-23.26417","-47.29917","Itu city center","Central urban district (auto-added, pop >=100k)"
"04","neighborhoods/br-ituiutaba/city-centre","images/Neighborhood_POIs/br-ituiutaba/city-centre/","City Centre","Ituiutaba","","Brazil","BR","City Centre, Ituiutaba, Brazil","-18.97428","-49.46212","Ituiutaba city center","Central urban district (auto-added, pop >=100k)"
"05","neighborhoods/br-jacarei/city-centre","images/Neighborhood_POIs/br-jacarei/city-centre/","City Centre","Jacareí","","Brazil","BR","City Centre, Jacareí, Brazil","-23.30528","-45.96583","Jacareí city center","Central urban district (auto-added, pop >=100k)"
"06","neighborhoods/br-japeri/city-centre","images/Neighborhood_POIs/br-japeri/city-centre/","City Centre","Japeri","","Brazil","BR","City Centre, Japeri, Brazil","-22.64306","-43.65333","Japeri city center","Central urban district (auto-added, pop >=100k)"
"07","neighborhoods/br-jaragua-do-sul/city-centre","images/Neighborhood_POIs/br-jaragua-do-sul/city-centre/","City Centre","Jaraguá do Sul","","Brazil","BR","City Centre, Jaraguá do Sul, Brazil","-26.48611","-49.06667","Jaraguá do Sul city center","Central urban district (auto-added, pop >=100k)"
"08","neighborhoods/br-jatai/city-centre","images/Neighborhood_POIs/br-jatai/city-centre/","City Centre","Jataí","","Brazil","BR","City Centre, Jataí, Brazil","-17.87939","-51.72166","Jataí city center","Central urban district (auto-added, pop >=100k)"
"09","neighborhoods/br-jau/city-centre","images/Neighborhood_POIs/br-jau/city-centre/","City Centre","Jaú","","Brazil","BR","City Centre, Jaú, Brazil","-22.29639","-48.55778","Jaú city center","Central urban district (auto-added, pop >=100k)"
"10","neighborhoods/br-jequie/city-centre","images/Neighborhood_POIs/br-jequie/city-centre/","City Centre","Jequié","","Brazil","BR","City Centre, Jequié, Brazil","-13.85875","-40.08512","Jequié city center","Central urban district (auto-added, pop >=100k)"
"11","neighborhoods/br-ji-parana/city-centre","images/Neighborhood_POIs/br-ji-parana/city-centre/","City Centre","Ji Paraná","","Brazil","BR","City Centre, Ji Paraná, Brazil","-10.88528","-61.95167","Ji Paraná city center","Central urban district (auto-added, pop >=100k)"
"12","neighborhoods/br-juazeiro-do-norte/city-centre","images/Neighborhood_POIs/br-juazeiro-do-norte/city-centre/","City Centre","Juazeiro do Norte","","Brazil","BR","City Centre, Juazeiro do Norte, Brazil","-7.21306","-39.31528","Juazeiro do Norte city center","Central urban district (auto-added, pop >=100k)"
"13","neighborhoods/br-jundiai/centro","images/Neighborhood_POIs/br-jundiai/centro/","Centro","Jundiaí","","Brazil","BR","Centro, Jundiaí, Brazil","-23.1885977","-46.8849182","Praça Governador Pedro de Toledo","walkable central commercial district"
"14","neighborhoods/br-lagarto/city-centre","images/Neighborhood_POIs/br-lagarto/city-centre/","City Centre","Lagarto","","Brazil","BR","City Centre, Lagarto, Brazil","-10.91722","-37.65","Lagarto city center","Central urban district (auto-added, pop >=100k)"
"15","neighborhoods/br-lages/city-centre","images/Neighborhood_POIs/br-lages/city-centre/","City Centre","Lages","","Brazil","BR","City Centre, Lages, Brazil","-27.81611","-50.32611","Lages city center","Central urban district (auto-added, pop >=100k)"
"16","neighborhoods/br-lauro-de-freitas/city-centre","images/Neighborhood_POIs/br-lauro-de-freitas/city-centre/","City Centre","Lauro de Freitas","","Brazil","BR","City Centre, Lauro de Freitas, Brazil","-12.89444","-38.32722","Lauro de Freitas city center","Central urban district (auto-added, pop >=100k)"
"17","neighborhoods/br-lavras/city-centre","images/Neighborhood_POIs/br-lavras/city-centre/","City Centre","Lavras","","Brazil","BR","City Centre, Lavras, Brazil","-21.24528","-44.99972","Lavras city center","Central urban district (auto-added, pop >=100k)"
"18","neighborhoods/br-linhares/city-centre","images/Neighborhood_POIs/br-linhares/city-centre/","City Centre","Linhares","","Brazil","BR","City Centre, Linhares, Brazil","-19.39111","-40.07222","Linhares city center","Central urban district (auto-added, pop >=100k)"
"19","neighborhoods/br-londrina/gleba-palhano","images/Neighborhood_POIs/br-londrina/gleba-palhano/","Gleba Palhano","Londrina","","Brazil","BR","Gleba Palhano, Londrina, Brazil","-23.3464267","-51.1431037","Parque Arthur Thomas","modern upscale district"
"00","neighborhoods/br-luis-eduardo-magalhaes/city-centre","images/Neighborhood_POIs/br-luis-eduardo-magalhaes/city-centre/","City Centre","Luis Eduardo Magalhães","","Brazil","BR","City Centre, Luis Eduardo Magalhães, Brazil","-12.09086","-45.78501","Luis Eduardo Magalhães city center","Central urban district (auto-added, pop >=100k)"
"01","neighborhoods/br-luziania/city-centre","images/Neighborhood_POIs/br-luziania/city-centre/","City Centre","Luziânia","","Brazil","BR","City Centre, Luziânia, Brazil","-16.2525","-47.95028","Luziânia city center","Central urban district (auto-added, pop >=100k)"
"02","neighborhoods/br-macae/city-centre","images/Neighborhood_POIs/br-macae/city-centre/","City Centre","Macaé","","Brazil","BR","City Centre, Macaé, Brazil","-22.38484","-41.78324","Macaé city center","Central urban district (auto-added, pop >=100k)"
"03","neighborhoods/br-macapa/centro","images/Neighborhood_POIs/br-macapa/centro/","Centro","Macapá","","Brazil","BR","Centro, Macapá, Brazil","0.0005921","-51.0782323","Marco Zero do Equador","Central commercial waterfront district"
"04","neighborhoods/br-mage/city-centre","images/Neighborhood_POIs/br-mage/city-centre/","City Centre","Magé","","Brazil","BR","City Centre, Magé, Brazil","-22.65278","-43.04056","Magé city center","Central urban district (auto-added, pop >=100k)"
"05","neighborhoods/br-manacapuru/city-centre","images/Neighborhood_POIs/br-manacapuru/city-centre/","City Centre","Manacapuru","","Brazil","BR","City Centre, Manacapuru, Brazil","-3.29972","-60.62056","Manacapuru city center","Central urban district (auto-added, pop >=100k)"
"06","neighborhoods/br-maraba/city-centre","images/Neighborhood_POIs/br-maraba/city-centre/","City Centre","Marabá","","Brazil","BR","City Centre, Marabá, Brazil","-5.38146","-49.13232","Marabá city center","Central urban district (auto-added, pop >=100k)"
"07","neighborhoods/br-marica/city-centre","images/Neighborhood_POIs/br-marica/city-centre/","City Centre","Maricá","","Brazil","BR","City Centre, Maricá, Brazil","-22.91944","-42.81861","Maricá city center","Central urban district (auto-added, pop >=100k)"
"08","neighborhoods/br-marilia/city-centre","images/Neighborhood_POIs/br-marilia/city-centre/","City Centre","Marília","","Brazil","BR","City Centre, Marília, Brazil","-22.21389","-49.94583","Marília city center","Central urban district (auto-added, pop >=100k)"
"09","neighborhoods/br-maringa/centro","images/Neighborhood_POIs/br-maringa/centro/","Centro","Maringá","","Brazil","BR","Centro, Maringá, Brazil","-23.4261063","-51.938256","Catedral Basílica Menor de Maringá","Planned city central core"
"10","neighborhoods/br-maringa/zona-1","images/Neighborhood_POIs/br-maringa/zona-1/","Zona 1","Maringá","","Brazil","BR","Zona 1, Maringá, Brazil","-23.4130279","-51.9183806","Parque Alfredo Nyffeler","Commercial downtown district"
"11","neighborhoods/br-maringa/zona-7","images/Neighborhood_POIs/br-maringa/zona-7/","Zona 7","Maringá","","Brazil","BR","Zona 7, Maringá, Brazil","-23.4257228","-51.9329132","Parque do Ingá","Affluent central residential area"
"12","neighborhoods/br-maua/centro","images/Neighborhood_POIs/br-maua/centro/","Centro","Mauá","","Brazil","BR","Centro, Mauá, Brazil","-22.8958387","-43.1808371","Praça Mauá","central commercial business district"
"13","neighborhoods/br-mogi-guacu/city-centre","images/Neighborhood_POIs/br-mogi-guacu/city-centre/","City Centre","Mogi Guaçu","","Brazil","BR","City Centre, Mogi Guaçu, Brazil","-22.3677","-46.94552","Mogi Guaçu city center","Central urban district (auto-added, pop >=100k)"
